{
  "type": "FeatureCollection",
  "features": [{
    "type": "Feature",
    "properties": {
      "name": "Hedwig Abraham",
      "address": "Märkisches Ufer 20",
      "deport": "1942-09-10",
      "murder": "Ghetto Theresienstadt",
      "death": "1945-05-08"
    },
    "geometry": {
      "type": "Point",
      "coordinates": [
        13.4104961,
        52.513003
      ]
    }
  }, {
    "type": "Feature",
    "properties": {
      "name": "Richard Abraham",
      "address": "Wallstraße 84",
      "deport": "1942-10-03",
      "murder": "Auschwitz",
      "death": "1945-05-08"
    },
    "geometry": {
      "type": "Point",
      "coordinates": [
        13.40811,
        52.51201
      ]
    }
  }, {
    "type": "Feature",
    "properties": {
      "name": "Herta Abraham",
      "address": "Wallstraße 84",
      "deport": "1942-10-03",
      "murder": "Auschwitz",
      "death": "1945-05-08"
    },
    "geometry": {
      "type": "Point",
      "coordinates": [
        13.40811,
        52.51201
      ]
    }
  }, {
    "type": "Feature",
    "properties": {
      "name": "Ruth Nelly Abraham",
      "address": "Wallstraße 84",
      "deport": "1942-10-03",
      "murder": "Auschwitz",
      "death": "1945-05-08"
    },
    "geometry": {
      "type": "Point",
      "coordinates": [
        13.40811,
        52.51201
      ]
    }
  }, {
    "type": "Feature",
    "properties": {
      "name": "Edmond Adout",
      "address": "Dortmunder Str. 9",
      "deport": "1942-07-11",
      "murder": "Auschwitz",
      "death": "1945-05-08"
    },
    "geometry": {
      "type": "Point",
      "coordinates": [
        13.33625,
        52.52162000000001
      ]
    }
  }, {
    "type": "Feature",
    "properties": {
      "name": "Margarete Alexander",
      "address": "Elberfelder Str. 20",
      "deport": "1942-07-21",
      "murder": "Ghetto Theresienstadt",
      "death": "1943-02-18"
    },
    "geometry": {
      "type": "Point",
      "coordinates": [
        13.33535,
        52.52139
      ]
    }
  }, {
    "type": "Feature",
    "properties": {
      "name": "Fritz Ulrich Alexander",
      "address": "Engeldamm 66",
      "deport": "1942-03-28",
      "murder": "place of death unknown",
      "death": "1945-05-08"
    },
    "geometry": {
      "type": "Point",
      "coordinates": [
        13.4209478,
        52.5059103
      ]
    }
  }, {
    "type": "Feature",
    "properties": {
      "name": "Alfons Alexander",
      "address": "Turiner Straße 46",
      "deport": "1943-03-04",
      "murder": "Auschwitz",
      "death": "1945-05-08"
    },
    "geometry": {
      "type": "Point",
      "coordinates": [
        13.3558381,
        52.55132889999999
      ]
    }
  }, {
    "type": "Feature",
    "properties": {
      "name": "Evelyne Alexander",
      "address": "Turiner Straße 46",
      "deport": "1943-03-04",
      "murder": "Auschwitz",
      "death": "1945-05-08"
    },
    "geometry": {
      "type": "Point",
      "coordinates": [
        13.3558381,
        52.55132889999999
      ]
    }
  }, {
    "type": "Feature",
    "properties": {
      "name": "Anni Alexander",
      "address": "Turiner Straße 46",
      "deport": "1943-03-04",
      "murder": "Auschwitz",
      "death": "1945-05-08"
    },
    "geometry": {
      "type": "Point",
      "coordinates": [
        13.3558381,
        52.55132889999999
      ]
    }
  }, {
    "type": "Feature",
    "properties": {
      "name": "Gertrud Alter",
      "address": "Cuxhavener Straße 14",
      "deport": "1942-07-23",
      "murder": "Ghetto Theresienstadt",
      "death": "1944-01-23"
    },
    "geometry": {
      "type": "Point",
      "coordinates": [
        13.33799,
        52.51785
      ]
    }
  }, {
    "type": "Feature",
    "properties": {
      "name": "Elise Altona",
      "address": "Steinstr. 2",
      "deport": "1942-11-19",
      "murder": "Auschwitz",
      "death": "1945-05-08"
    },
    "geometry": {
      "type": "Point",
      "coordinates": [
        13.39742,
        52.39545
      ]
    }
  }, {
    "type": "Feature",
    "properties": {
      "name": "Hermann Aron",
      "address": "Rosenthaler Str. 62",
      "deport": "1941-11-01",
      "murder": "Ghetto Litzmannstadt \/ Łódź",
      "death": "1941-11-19"
    },
    "geometry": {
      "type": "Point",
      "coordinates": [
        13.40344,
        52.52768
      ]
    }
  }, {
    "type": "Feature",
    "properties": {
      "name": "Martha Sophie Aron",
      "address": "Rosenthaler Str. 62",
      "deport": "1941-11-01",
      "murder": "place of death unknown",
      "death": "1945-05-08"
    },
    "geometry": {
      "type": "Point",
      "coordinates": [
        13.40344,
        52.52768
      ]
    }
  }, {
    "type": "Feature",
    "properties": {
      "name": "Henriette Aronhold",
      "address": "Tucholskystr. 38",
      "deport": "1944-06-16",
      "murder": "Ghetto Theresienstadt",
      "death": "1944-10-26"
    },
    "geometry": {
      "type": "Point",
      "coordinates": [
        13.3935183,
        52.5267826
      ]
    }
  }, {
    "type": "Feature",
    "properties": {
      "name": "Leo Aronsbach",
      "address": "Große Hamburger Str. 29",
      "deport": "1943-03-17",
      "murder": "Auschwitz",
      "death": "1945-05-08"
    },
    "geometry": {
      "type": "Point",
      "coordinates": [
        13.399192,
        52.5253025
      ]
    }
  }, {
    "type": "Feature",
    "properties": {
      "name": "Flora Aronsbach",
      "address": "Große Hamburger Str. 29",
      "deport": "1943-03-17",
      "murder": "Ghetto Theresienstadt",
      "death": "1943-05-17"
    },
    "geometry": {
      "type": "Point",
      "coordinates": [
        13.399192,
        52.5253025
      ]
    }
  }, {
    "type": "Feature",
    "properties": {
      "name": "Selma Aronsbach",
      "address": "Große Präsidentenstraße 8",
      "deport": "1942-10-19",
      "murder": "Ghetto Riga",
      "death": "1942-10-22"
    },
    "geometry": {
      "type": "Point",
      "coordinates": [
        13.4011667,
        52.5232105
      ]
    }
  }, {
    "type": "Feature",
    "properties": {
      "name": "Erika Aronsbach",
      "address": "Große Präsidentenstraße 8",
      "deport": "1942-10-19",
      "murder": "Ghetto Riga",
      "death": "1942-10-22"
    },
    "geometry": {
      "type": "Point",
      "coordinates": [
        13.4011667,
        52.5232105
      ]
    }
  }, {
    "type": "Feature",
    "properties": {
      "name": "Manfred Aronsbach",
      "address": "Große Präsidentenstraße 8",
      "deport": "1942-10-19",
      "murder": "Ghetto Riga",
      "death": "1942-10-22"
    },
    "geometry": {
      "type": "Point",
      "coordinates": [
        13.4011667,
        52.5232105
      ]
    }
  }, {
    "type": "Feature",
    "properties": {
      "name": "Paul Aronsbach",
      "address": "Große Präsidentenstraße 8",
      "deport": "1942-10-19",
      "murder": "Ghetto Riga",
      "death": "1945-05-08"
    },
    "geometry": {
      "type": "Point",
      "coordinates": [
        13.4011667,
        52.5232105
      ]
    }
  }, {
    "type": "Feature",
    "properties": {
      "name": "Philipp Aronstein",
      "address": "Solinger Str. 7",
      "deport": "1942-09-08",
      "murder": "Ghetto Theresienstadt",
      "death": "1942-09-23"
    },
    "geometry": {
      "type": "Point",
      "coordinates": [
        13.3342687,
        52.51910239999999
      ]
    }
  }, {
    "type": "Feature",
    "properties": {
      "name": "Luise Aronstein",
      "address": "Solinger Str. 7",
      "deport": "1942-09-08",
      "murder": "Auschwitz",
      "death": "1945-05-08"
    },
    "geometry": {
      "type": "Point",
      "coordinates": [
        13.3342687,
        52.51910239999999
      ]
    }
  }, {
    "type": "Feature",
    "properties": {
      "name": "David (Davicso) Asriel",
      "address": "Friedrichstr. 76",
      "deport": "1942-01-25",
      "murder": "Ghetto Riga",
      "death": "1945-05-08"
    },
    "geometry": {
      "type": "Point",
      "coordinates": [
        13.3892811,
        52.5139917
      ]
    }
  }, {
    "type": "Feature",
    "properties": {
      "name": "Helene Asriel",
      "address": "Genthiner Str. 46",
      "deport": "1943-05-17",
      "murder": "Auschwitz",
      "death": "1945-05-08"
    },
    "geometry": {
      "type": "Point",
      "coordinates": [
        13.35827,
        52.50235
      ]
    }
  }, {
    "type": "Feature",
    "properties": {
      "name": "Emma Bachrach",
      "address": "Torstr. 223",
      "deport": "1942-11-04",
      "murder": "Ghetto Theresienstadt",
      "death": "1943-01-11"
    },
    "geometry": {
      "type": "Point",
      "coordinates": [
        13.38822,
        52.52779
      ]
    }
  }, {
    "type": "Feature",
    "properties": {
      "name": "Issak Barkowsky",
      "address": "Badstraße 58",
      "deport": "1943-02-26",
      "murder": "Auschwitz",
      "death": "1945-05-08"
    },
    "geometry": {
      "type": "Point",
      "coordinates": [
        13.3827,
        52.55127
      ]
    }
  }, {
    "type": "Feature",
    "properties": {
      "name": "Frieda Barkowsky",
      "address": "Badstraße 58",
      "deport": "1943-02-26",
      "murder": "Auschwitz",
      "death": "1945-05-08"
    },
    "geometry": {
      "type": "Point",
      "coordinates": [
        13.3827,
        52.55127
      ]
    }
  }, {
    "type": "Feature",
    "properties": {
      "name": "Alfred Barkowsky",
      "address": "Badstraße 58",
      "deport": "1943-02-26",
      "murder": "Auschwitz",
      "death": "1945-05-08"
    },
    "geometry": {
      "type": "Point",
      "coordinates": [
        13.3827,
        52.55127
      ]
    }
  }, {
    "type": "Feature",
    "properties": {
      "name": "Friedrike Barkowsky",
      "address": "Badstraße 58",
      "deport": "1943-02-26",
      "murder": "Auschwitz",
      "death": "1945-05-08"
    },
    "geometry": {
      "type": "Point",
      "coordinates": [
        13.3827,
        52.55127
      ]
    }
  }, {
    "type": "Feature",
    "properties": {
      "name": "Ilse Barkowsky",
      "address": "Badstraße 58",
      "deport": "1943-02-26",
      "murder": "Auschwitz",
      "death": "1945-05-08"
    },
    "geometry": {
      "type": "Point",
      "coordinates": [
        13.3827,
        52.55127
      ]
    }
  }, {
    "type": "Feature",
    "properties": {
      "name": "Julius Barkowsky",
      "address": "Reinickendorfer Str. 77",
      "deport": "1941-11-17",
      "murder": "KZ Kauen \/ Kowno",
      "death": "1941-11-25"
    },
    "geometry": {
      "type": "Point",
      "coordinates": [
        13.3675,
        52.55057
      ]
    }
  }, {
    "type": "Feature",
    "properties": {
      "name": "Helene Barkowsky",
      "address": "Reinickendorfer Str. 77",
      "deport": "1941-11-17",
      "murder": "KZ Kauen \/ Kowno",
      "death": "1941-11-25"
    },
    "geometry": {
      "type": "Point",
      "coordinates": [
        13.3675,
        52.55057
      ]
    }
  }, {
    "type": "Feature",
    "properties": {
      "name": "Adolf Barkowsky",
      "address": "Reinickendorfer Str. 77",
      "deport": "1941-11-17",
      "murder": "KZ Kauen \/ Kowno",
      "death": "1941-11-25"
    },
    "geometry": {
      "type": "Point",
      "coordinates": [
        13.3675,
        52.55057
      ]
    }
  }, {
    "type": "Feature",
    "properties": {
      "name": "Frieda Baumann",
      "address": "Almstadtstr. 24",
      "deport": "1945-05-08",
      "murder": "Zamość",
      "death": "1945-05-08"
    },
    "geometry": {
      "type": "Point",
      "coordinates": [
        13.4097,
        52.5257
      ]
    }
  }, {
    "type": "Feature",
    "properties": {
      "name": "Joseph Baumann",
      "address": "Almstadtstr. 24",
      "deport": "1945-05-08",
      "murder": "Zamość",
      "death": "1945-05-08"
    },
    "geometry": {
      "type": "Point",
      "coordinates": [
        13.4097,
        52.5257
      ]
    }
  }, {
    "type": "Feature",
    "properties": {
      "name": "Max Bayer",
      "address": "Unter den Linden 6",
      "deport": "1945-05-08",
      "murder": "place of death unknown",
      "death": "1945-05-08"
    },
    "geometry": {
      "type": "Point",
      "coordinates": [
        13.39282,
        52.51806
      ]
    }
  }, {
    "type": "Feature",
    "properties": {
      "name": "Elia Behar",
      "address": "Köpenicker Straße 112",
      "deport": "1942-06-13",
      "murder": "KZ Majdanek",
      "death": "1945-05-08"
    },
    "geometry": {
      "type": "Point",
      "coordinates": [
        13.4188144,
        52.5104066
      ]
    }
  }, {
    "type": "Feature",
    "properties": {
      "name": "Lea Behar",
      "address": "Köpenicker Straße 112",
      "deport": "1942-06-13",
      "murder": "KZ Majdanek",
      "death": "1945-05-08"
    },
    "geometry": {
      "type": "Point",
      "coordinates": [
        13.4188144,
        52.5104066
      ]
    }
  }, {
    "type": "Feature",
    "properties": {
      "name": "Simcha Behar",
      "address": "Köpenicker Straße 112",
      "deport": "1943-03-01",
      "murder": "place of death unknown",
      "death": "1945-05-08"
    },
    "geometry": {
      "type": "Point",
      "coordinates": [
        13.4188144,
        52.5104066
      ]
    }
  }, {
    "type": "Feature",
    "properties": {
      "name": "Jakob Behar",
      "address": "Köpenicker Straße 112",
      "deport": "1943-03-01",
      "murder": "place of death unknown",
      "death": "1945-05-08"
    },
    "geometry": {
      "type": "Point",
      "coordinates": [
        13.4188144,
        52.5104066
      ]
    }
  }, {
    "type": "Feature",
    "properties": {
      "name": "Leopold Behrendt",
      "address": "Bredowstraße 49",
      "deport": "1941-11-14",
      "murder": "Ghetto Minsk",
      "death": "1945-05-08"
    },
    "geometry": {
      "type": "Point",
      "coordinates": [
        13.3399002,
        52.5267347
      ]
    }
  }, {
    "type": "Feature",
    "properties": {
      "name": "Helene Behrendt",
      "address": "Bredowstraße 49",
      "deport": "1941-11-14",
      "murder": "Ghetto Minsk",
      "death": "1945-05-08"
    },
    "geometry": {
      "type": "Point",
      "coordinates": [
        13.3399002,
        52.5267347
      ]
    }
  }, {
    "type": "Feature",
    "properties": {
      "name": "Konrad Behrendt",
      "address": "Hussitenstr. 7",
      "deport": "1945-05-08",
      "murder": "Zuchthaus Luckau",
      "death": "1943-05-20"
    },
    "geometry": {
      "type": "Point",
      "coordinates": [
        13.3898227,
        52.5371145
      ]
    }
  }, {
    "type": "Feature",
    "properties": {
      "name": "Karl Behrens",
      "address": "Huttenstraße 12",
      "deport": "1945-05-08",
      "murder": "Berlin-Plötzensee",
      "death": "1943-05-13"
    },
    "geometry": {
      "type": "Point",
      "coordinates": [
        13.3247974,
        52.5278271
      ]
    }
  }, {
    "type": "Feature",
    "properties": {
      "name": "Simon Beiser",
      "address": "Levetzowstr. 16",
      "deport": "1942-04-02",
      "murder": "Ghetto Warschau",
      "death": "1945-05-08"
    },
    "geometry": {
      "type": "Point",
      "coordinates": [
        13.33735,
        52.52056
      ]
    }
  }, {
    "type": "Feature",
    "properties": {
      "name": "Lina Bendheim",
      "address": "Dresdener Straße 91",
      "deport": "1942-10-03",
      "murder": "Auschwitz",
      "death": "1945-05-08"
    },
    "geometry": {
      "type": "Point",
      "coordinates": [
        13.41232,
        52.50774999999999
      ]
    }
  }, {
    "type": "Feature",
    "properties": {
      "name": "Salomon Bendheim",
      "address": "Dresdener Straße 91",
      "deport": "1942-10-03",
      "murder": "Ghetto Theresienstadt",
      "death": "1942-10-22"
    },
    "geometry": {
      "type": "Point",
      "coordinates": [
        13.41232,
        52.50774999999999
      ]
    }
  }, {
    "type": "Feature",
    "properties": {
      "name": "Arthur Bendheim",
      "address": "Dresdener Straße 91",
      "deport": "1942-08-10",
      "murder": "Auschwitz",
      "death": "1945-05-08"
    },
    "geometry": {
      "type": "Point",
      "coordinates": [
        13.41232,
        52.50774999999999
      ]
    }
  }, {
    "type": "Feature",
    "properties": {
      "name": "Betty Bendheim",
      "address": "Dresdener Straße 91",
      "deport": "1942-10-03",
      "murder": "Ghetto Theresienstadt",
      "death": "1942-10-19"
    },
    "geometry": {
      "type": "Point",
      "coordinates": [
        13.41232,
        52.50774999999999
      ]
    }
  }, {
    "type": "Feature",
    "properties": {
      "name": "Felli (Feigel) Bergoffen",
      "address": "Sophienstraße 6",
      "deport": "1945-05-08",
      "murder": "Auschwitz",
      "death": "1945-05-08"
    },
    "geometry": {
      "type": "Point",
      "coordinates": [
        13.49365,
        52.50624000000001
      ]
    }
  }, {
    "type": "Feature",
    "properties": {
      "name": "Jakob Bergoffen",
      "address": "Sophienstraße 6",
      "deport": "1942-07-20",
      "murder": "Auschwitz",
      "death": "1942-08-31"
    },
    "geometry": {
      "type": "Point",
      "coordinates": [
        13.49365,
        52.50624000000001
      ]
    }
  }, {
    "type": "Feature",
    "properties": {
      "name": "Kurt Bernhardt",
      "address": "Ackerstr. 15",
      "deport": "1943-09-28",
      "murder": "Auschwitz",
      "death": "1945-05-08"
    },
    "geometry": {
      "type": "Point",
      "coordinates": [
        13.39782,
        52.53107
      ]
    }
  }, {
    "type": "Feature",
    "properties": {
      "name": "Marion Beutler",
      "address": "Unter den Linden 6",
      "deport": "1941-10-29",
      "murder": "KZ Kulmhof \/ Chełmno",
      "death": "1942-05-05"
    },
    "geometry": {
      "type": "Point",
      "coordinates": [
        13.39282,
        52.51806
      ]
    }
  }, {
    "type": "Feature",
    "properties": {
      "name": "Heinz Bibergeil",
      "address": "Anklamer Straße 33",
      "deport": "1943-10-14",
      "murder": "Auschwitz",
      "death": "1945-05-08"
    },
    "geometry": {
      "type": "Point",
      "coordinates": [
        13.39895,
        52.5362
      ]
    }
  }, {
    "type": "Feature",
    "properties": {
      "name": "Martin Bick",
      "address": "Zionskirchstr. 32",
      "deport": "1942-12-14",
      "murder": "Auschwitz",
      "death": "1945-05-08"
    },
    "geometry": {
      "type": "Point",
      "coordinates": [
        13.40298,
        52.53411
      ]
    }
  }, {
    "type": "Feature",
    "properties": {
      "name": "Grete Blum",
      "address": "Ackerstr. 83-84",
      "deport": "1941-11-17",
      "murder": "KZ Kauen \/ Kowno",
      "death": "1941-11-25"
    },
    "geometry": {
      "type": "Point",
      "coordinates": [
        13.3960828,
        52.5322027
      ]
    }
  }, {
    "type": "Feature",
    "properties": {
      "name": "Georg Blumenfeld",
      "address": "Kurfürstenstr. 58",
      "deport": "1945-05-08",
      "murder": "Berlin",
      "death": "1939-06-21"
    },
    "geometry": {
      "type": "Point",
      "coordinates": [
        13.31397,
        52.50115
      ]
    }
  }, {
    "type": "Feature",
    "properties": {
      "name": "Lucia Margarethe Blumenfeld",
      "address": "Kurfürstenstr. 58",
      "deport": "1945-05-08",
      "murder": "Berlin",
      "death": "1941-11-11"
    },
    "geometry": {
      "type": "Point",
      "coordinates": [
        13.31397,
        52.50115
      ]
    }
  }, {
    "type": "Feature",
    "properties": {
      "name": "Herbert Blumenfeld",
      "address": "Solinger Straße 10",
      "deport": "1945-05-08",
      "murder": "place of death unknown",
      "death": "1945-05-08"
    },
    "geometry": {
      "type": "Point",
      "coordinates": [
        13.3350916,
        52.519782
      ]
    }
  }, {
    "type": "Feature",
    "properties": {
      "name": "Irene Blumenfeld",
      "address": "Solinger Straße 10",
      "deport": "1945-05-08",
      "murder": "place of death unknown",
      "death": "1945-05-08"
    },
    "geometry": {
      "type": "Point",
      "coordinates": [
        13.3350916,
        52.519782
      ]
    }
  }, {
    "type": "Feature",
    "properties": {
      "name": "Max Blumenthal",
      "address": "Solinger Straße 10",
      "deport": "1942-10-03",
      "murder": "Ghetto Theresienstadt",
      "death": "1945-05-08"
    },
    "geometry": {
      "type": "Point",
      "coordinates": [
        13.3350916,
        52.519782
      ]
    }
  }, {
    "type": "Feature",
    "properties": {
      "name": "Paula Blumenthal",
      "address": "Solinger Straße 10",
      "deport": "1942-10-03",
      "murder": "Ghetto Theresienstadt",
      "death": "1945-05-08"
    },
    "geometry": {
      "type": "Point",
      "coordinates": [
        13.3350916,
        52.519782
      ]
    }
  }, {
    "type": "Feature",
    "properties": {
      "name": "Julius Blumenthal",
      "address": "Oranienburger Str. 1",
      "deport": "1945-05-08",
      "murder": "KZ Sachsenhausen",
      "death": "1942-12-03"
    },
    "geometry": {
      "type": "Point",
      "coordinates": [
        13.33406,
        52.57911000000001
      ]
    }
  }, {
    "type": "Feature",
    "properties": {
      "name": "Alexander Bock",
      "address": "Zionskirchstr. 30",
      "deport": "1943-02-19",
      "murder": "Auschwitz",
      "death": "1945-05-08"
    },
    "geometry": {
      "type": "Point",
      "coordinates": [
        13.4030604,
        52.5342657
      ]
    }
  }, {
    "type": "Feature",
    "properties": {
      "name": "Walter Boldes",
      "address": "Holzmarktstr.",
      "deport": "1945-05-08",
      "murder": "Berlin-Plötzensee",
      "death": "1942-12-14"
    },
    "geometry": {
      "type": "Point",
      "coordinates": [
        13.4241397,
        52.513563
      ]
    }
  }, {
    "type": "Feature",
    "properties": {
      "name": "Walter Boldt",
      "address": "Linienstraße 223",
      "deport": "1945-05-08",
      "murder": "Liegnitz \/ Legnica",
      "death": "1944-09-12"
    },
    "geometry": {
      "type": "Point",
      "coordinates": [
        13.409674,
        52.528144
      ]
    }
  }, {
    "type": "Feature",
    "properties": {
      "name": "Willi Bolien",
      "address": "Maxstr. 12",
      "deport": "1945-05-08",
      "murder": "Gestapoleitstelle Berlin-Alexanderplatz",
      "death": "1944-10-14"
    },
    "geometry": {
      "type": "Point",
      "coordinates": [
        13.36379,
        52.55024
      ]
    }
  }, {
    "type": "Feature",
    "properties": {
      "name": "Wilhelm Bösch",
      "address": "Huttenstraße 12",
      "deport": "1945-05-08",
      "murder": "place of death unknown",
      "death": "1945-05-08"
    },
    "geometry": {
      "type": "Point",
      "coordinates": [
        13.3247974,
        52.5278271
      ]
    }
  }, {
    "type": "Feature",
    "properties": {
      "name": "Hedwig Braun",
      "address": "Bochumer Str. 14",
      "deport": "1943-03-17",
      "murder": "place of death unknown",
      "death": "1943-09-09"
    },
    "geometry": {
      "type": "Point",
      "coordinates": [
        13.3383668,
        52.5223297
      ]
    }
  }, {
    "type": "Feature",
    "properties": {
      "name": "Leo Braun",
      "address": "Schröderstr. 2",
      "deport": "1942-01-19",
      "murder": "Ghetto Riga",
      "death": "1945-05-08"
    },
    "geometry": {
      "type": "Point",
      "coordinates": [
        13.39281,
        52.53017999999999
      ]
    }
  }, {
    "type": "Feature",
    "properties": {
      "name": "Selma Braun",
      "address": "Schröderstr. 2",
      "deport": "1942-01-19",
      "murder": "Ghetto Riga",
      "death": "1945-05-08"
    },
    "geometry": {
      "type": "Point",
      "coordinates": [
        13.39281,
        52.53017999999999
      ]
    }
  }, {
    "type": "Feature",
    "properties": {
      "name": "Ella Brauner",
      "address": "Inselstraße 12",
      "deport": "1943-03-02",
      "murder": "Auschwitz",
      "death": "1945-05-08"
    },
    "geometry": {
      "type": "Point",
      "coordinates": [
        13.4128335,
        52.5117471
      ]
    }
  }, {
    "type": "Feature",
    "properties": {
      "name": "Günter Brauner",
      "address": "Inselstraße 12",
      "deport": "1943-03-02",
      "murder": "Auschwitz",
      "death": "1945-05-08"
    },
    "geometry": {
      "type": "Point",
      "coordinates": [
        13.4128335,
        52.5117471
      ]
    }
  }, {
    "type": "Feature",
    "properties": {
      "name": "Leo Brauner",
      "address": "Inselstraße 12",
      "deport": "1943-03-03",
      "murder": "Auschwitz",
      "death": "1945-05-08"
    },
    "geometry": {
      "type": "Point",
      "coordinates": [
        13.4128335,
        52.5117471
      ]
    }
  }, {
    "type": "Feature",
    "properties": {
      "name": "Herbert Simon Brinitzer",
      "address": "Unter den Linden 6",
      "deport": "1943-03-01",
      "murder": "Auschwitz",
      "death": "1943-11-26"
    },
    "geometry": {
      "type": "Point",
      "coordinates": [
        13.39282,
        52.51806
      ]
    }
  }, {
    "type": "Feature",
    "properties": {
      "name": "Walther Brock",
      "address": "Unter den Linden 6",
      "deport": "1942-12-14",
      "murder": "Auschwitz",
      "death": "1945-05-08"
    },
    "geometry": {
      "type": "Point",
      "coordinates": [
        13.39282,
        52.51806
      ]
    }
  }, {
    "type": "Feature",
    "properties": {
      "name": "Bernhard Bromberger",
      "address": "Linienstr. 31",
      "deport": "1943-02-19",
      "murder": "Auschwitz",
      "death": "1945-05-08"
    },
    "geometry": {
      "type": "Point",
      "coordinates": [
        13.4110691,
        52.5280127
      ]
    }
  }, {
    "type": "Feature",
    "properties": {
      "name": "Karl Bublitz",
      "address": "Dortmunder Str. 2",
      "deport": "1945-05-08",
      "murder": "KZ Sachsenhausen",
      "death": "1945-01-01"
    },
    "geometry": {
      "type": "Point",
      "coordinates": [
        13.3375981,
        52.5213714
      ]
    }
  }, {
    "type": "Feature",
    "properties": {
      "name": "Erwin Leo Buchwald",
      "address": "Torstr. 126",
      "deport": "1943-03-01",
      "murder": "Auschwitz",
      "death": "1945-05-08"
    },
    "geometry": {
      "type": "Point",
      "coordinates": [
        13.4006702,
        52.5294067
      ]
    }
  }, {
    "type": "Feature",
    "properties": {
      "name": "Herbert Budzislawski",
      "address": "Große Hamburger Straße 15\/16",
      "deport": "1945-05-08",
      "murder": "Berlin-Plötzensee",
      "death": "1943-09-07"
    },
    "geometry": {
      "type": "Point",
      "coordinates": [
        13.3986,
        52.52507
      ]
    }
  }, {
    "type": "Feature",
    "properties": {
      "name": "Anita Bukofzer",
      "address": "Rosenthaler Str. 40\/41",
      "deport": "1943-01-12",
      "murder": "Auschwitz",
      "death": "1945-05-08"
    },
    "geometry": {
      "type": "Point",
      "coordinates": [
        13.4025359,
        52.5240131
      ]
    }
  }, {
    "type": "Feature",
    "properties": {
      "name": "Alexander Bukofzer",
      "address": "Solinger Straße 10",
      "deport": "1945-05-08",
      "murder": "place of death unknown",
      "death": "1945-05-08"
    },
    "geometry": {
      "type": "Point",
      "coordinates": [
        13.3350916,
        52.519782
      ]
    }
  }, {
    "type": "Feature",
    "properties": {
      "name": "Gerhard Bukofzer",
      "address": "Solinger Straße 10",
      "deport": "1945-05-08",
      "murder": "place of death unknown",
      "death": "1945-05-08"
    },
    "geometry": {
      "type": "Point",
      "coordinates": [
        13.3350916,
        52.519782
      ]
    }
  }, {
    "type": "Feature",
    "properties": {
      "name": "Ida Buntmann-Weinstein",
      "address": "Rosenthaler Str. 48",
      "deport": "1942-07-31",
      "murder": "Auschwitz",
      "death": "1942-01-01"
    },
    "geometry": {
      "type": "Point",
      "coordinates": [
        13.4035116,
        52.5249547
      ]
    }
  }, {
    "type": "Feature",
    "properties": {
      "name": "Manja Buntmann-Weinstein",
      "address": "Rosenthaler Str. 48",
      "deport": "1942-07-31",
      "murder": "Auschwitz",
      "death": "1945-05-08"
    },
    "geometry": {
      "type": "Point",
      "coordinates": [
        13.4035116,
        52.5249547
      ]
    }
  }, {
    "type": "Feature",
    "properties": {
      "name": "Alice Buttermilch",
      "address": "Bochumer Str. 18",
      "deport": "1942-09-04",
      "murder": "Treblinka",
      "death": "1945-05-08"
    },
    "geometry": {
      "type": "Point",
      "coordinates": [
        13.33867,
        52.52315
      ]
    }
  }, {
    "type": "Feature",
    "properties": {
      "name": "Leo Buttermilch",
      "address": "Bochumer Str. 18",
      "deport": "1942-09-04",
      "murder": "Treblinka",
      "death": "1945-05-08"
    },
    "geometry": {
      "type": "Point",
      "coordinates": [
        13.33867,
        52.52315
      ]
    }
  }, {
    "type": "Feature",
    "properties": {
      "name": "Philipp Cahn",
      "address": "Wullenweberstr. 5",
      "deport": "1943-05-17",
      "murder": "Ghetto Theresienstadt",
      "death": "1944-03-05"
    },
    "geometry": {
      "type": "Point",
      "coordinates": [
        13.3119237,
        52.4367945
      ]
    }
  }, {
    "type": "Feature",
    "properties": {
      "name": "Sophie Cahn",
      "address": "Wullenweberstr. 5",
      "deport": "1943-05-17",
      "murder": "Auschwitz",
      "death": "1945-05-08"
    },
    "geometry": {
      "type": "Point",
      "coordinates": [
        13.3119237,
        52.4367945
      ]
    }
  }, {
    "type": "Feature",
    "properties": {
      "name": "Rebekka Camnitzer",
      "address": "Flotowstr. 9",
      "deport": "1942-09-14",
      "murder": "Ghetto Theresienstadt",
      "death": "1942-10-29"
    },
    "geometry": {
      "type": "Point",
      "coordinates": [
        13.3172641,
        52.4484884
      ]
    }
  }, {
    "type": "Feature",
    "properties": {
      "name": "Rudolf Caspary",
      "address": "Lessingstr. 10",
      "deport": "1944-03-09",
      "murder": "place of death unknown",
      "death": "1945-05-08"
    },
    "geometry": {
      "type": "Point",
      "coordinates": [
        13.34237,
        52.52214000000001
      ]
    }
  }, {
    "type": "Feature",
    "properties": {
      "name": "Raphael Cohen",
      "address": "Brückenstraße 5",
      "deport": "1942-07-11",
      "murder": "Auschwitz",
      "death": "1945-05-08"
    },
    "geometry": {
      "type": "Point",
      "coordinates": [
        13.4175277,
        52.5126977
      ]
    }
  }, {
    "type": "Feature",
    "properties": {
      "name": "Sol Cohen",
      "address": "Brückenstraße 5",
      "deport": "1942-07-11",
      "murder": "Auschwitz",
      "death": "1945-05-08"
    },
    "geometry": {
      "type": "Point",
      "coordinates": [
        13.4175277,
        52.5126977
      ]
    }
  }, {
    "type": "Feature",
    "properties": {
      "name": "Josef Cohen",
      "address": "Brückenstraße 5",
      "deport": "1942-07-11",
      "murder": "Auschwitz",
      "death": "1945-05-08"
    },
    "geometry": {
      "type": "Point",
      "coordinates": [
        13.4175277,
        52.5126977
      ]
    }
  }, {
    "type": "Feature",
    "properties": {
      "name": "Sara Cohen",
      "address": "Brückenstraße 5",
      "deport": "1942-07-11",
      "murder": "Auschwitz",
      "death": "1945-05-08"
    },
    "geometry": {
      "type": "Point",
      "coordinates": [
        13.4175277,
        52.5126977
      ]
    }
  }, {
    "type": "Feature",
    "properties": {
      "name": "Jenny Cohn",
      "address": "Gipsstraße 6",
      "deport": "1942-12-14",
      "murder": "Auschwitz",
      "death": "1945-05-08"
    },
    "geometry": {
      "type": "Point",
      "coordinates": [
        13.399861,
        52.526996
      ]
    }
  }, {
    "type": "Feature",
    "properties": {
      "name": "Gerda Cohn",
      "address": "Krefelder Str. 20",
      "deport": "1942-01-25",
      "murder": "place of death unknown",
      "death": "1945-05-08"
    },
    "geometry": {
      "type": "Point",
      "coordinates": [
        13.34004,
        52.52504
      ]
    }
  }, {
    "type": "Feature",
    "properties": {
      "name": "Else Cohn",
      "address": "Krefelder Str. 20",
      "deport": "1942-01-25",
      "murder": "Ghetto Riga",
      "death": "1945-05-08"
    },
    "geometry": {
      "type": "Point",
      "coordinates": [
        13.34004,
        52.52504
      ]
    }
  }, {
    "type": "Feature",
    "properties": {
      "name": "Ilse Cohn",
      "address": "Am Heizkraftwerk Mitte",
      "deport": "1942-01-25",
      "murder": "place of death unknown",
      "death": "1945-05-08"
    },
    "geometry": {
      "type": "Point",
      "coordinates": [
        13.3830683,
        52.5306438
      ]
    }
  }, {
    "type": "Feature",
    "properties": {
      "name": "Fritz Cohn",
      "address": "Seydelstr. 21",
      "deport": "1945-05-08",
      "murder": "Shanghai",
      "death": "1944-09-01"
    },
    "geometry": {
      "type": "Point",
      "coordinates": [
        13.4047744,
        52.5088061
      ]
    }
  }, {
    "type": "Feature",
    "properties": {
      "name": "Hans Cohn",
      "address": "Am Heizkraftwerk Mitte",
      "deport": "1942-01-25",
      "murder": "Ghetto Riga",
      "death": "1945-05-08"
    },
    "geometry": {
      "type": "Point",
      "coordinates": [
        13.3830683,
        52.5306438
      ]
    }
  }, {
    "type": "Feature",
    "properties": {
      "name": "Käthe Cohn",
      "address": "Am Heizkraftwerk Mitte",
      "deport": "1942-01-25",
      "murder": "Ghetto Riga",
      "death": "1945-05-08"
    },
    "geometry": {
      "type": "Point",
      "coordinates": [
        13.3830683,
        52.5306438
      ]
    }
  }, {
    "type": "Feature",
    "properties": {
      "name": "Martin Cohn",
      "address": "Köpenicker Str. 103",
      "deport": "1943-03-12",
      "murder": "Auschwitz",
      "death": "1945-05-08"
    },
    "geometry": {
      "type": "Point",
      "coordinates": [
        13.56383,
        52.49656
      ]
    }
  }, {
    "type": "Feature",
    "properties": {
      "name": "Paula Cronheim",
      "address": "Dortmunder Str. 6",
      "deport": "1942-01-25",
      "murder": "place of death unknown",
      "death": "1945-05-08"
    },
    "geometry": {
      "type": "Point",
      "coordinates": [
        13.33681,
        52.52193
      ]
    }
  }, {
    "type": "Feature",
    "properties": {
      "name": "Richard Czollack",
      "address": "Tile-Wardenberg-Str. 13",
      "deport": "1942-10-26",
      "murder": "Ghetto Riga",
      "death": "1942-10-29"
    },
    "geometry": {
      "type": "Point",
      "coordinates": [
        13.33453,
        52.51827
      ]
    }
  }, {
    "type": "Feature",
    "properties": {
      "name": "Johanna Czollack",
      "address": "Tile-Wardenberg-Str. 13",
      "deport": "1942-10-26",
      "murder": "Ghetto Riga",
      "death": "1942-10-29"
    },
    "geometry": {
      "type": "Point",
      "coordinates": [
        13.33453,
        52.51827
      ]
    }
  }, {
    "type": "Feature",
    "properties": {
      "name": "Judith Czollack",
      "address": "Tile-Wardenberg-Str. 13",
      "deport": "1942-10-26",
      "murder": "Ghetto Riga",
      "death": "1942-10-29"
    },
    "geometry": {
      "type": "Point",
      "coordinates": [
        13.33453,
        52.51827
      ]
    }
  }, {
    "type": "Feature",
    "properties": {
      "name": "Rahel Czollack",
      "address": "Tile-Wardenberg-Str. 13",
      "deport": "1942-10-26",
      "murder": "Ghetto Riga",
      "death": "1942-10-29"
    },
    "geometry": {
      "type": "Point",
      "coordinates": [
        13.33453,
        52.51827
      ]
    }
  }, {
    "type": "Feature",
    "properties": {
      "name": "Berisch Czupper",
      "address": "Torstr. 70",
      "deport": "1945-05-08",
      "murder": "Sachsenhausen",
      "death": "1940-01-29"
    },
    "geometry": {
      "type": "Point",
      "coordinates": [
        13.40756,
        52.52882
      ]
    }
  }, {
    "type": "Feature",
    "properties": {
      "name": "Gerda Dannenbaum",
      "address": "Alt-Moabit 85",
      "deport": "1943-01-29",
      "murder": "Auschwitz",
      "death": "1945-05-08"
    },
    "geometry": {
      "type": "Point",
      "coordinates": [
        13.3409065,
        52.5254591
      ]
    }
  }, {
    "type": "Feature",
    "properties": {
      "name": "Ilse Dannenbaum",
      "address": "Alt-Moabit 85",
      "deport": "1943-01-29",
      "murder": "Auschwitz",
      "death": "1945-05-08"
    },
    "geometry": {
      "type": "Point",
      "coordinates": [
        13.3409065,
        52.5254591
      ]
    }
  }, {
    "type": "Feature",
    "properties": {
      "name": "Arthur Dannenbaum",
      "address": "Alt-Moabit 85",
      "deport": "1943-01-26",
      "murder": "Auschwitz",
      "death": "1945-05-08"
    },
    "geometry": {
      "type": "Point",
      "coordinates": [
        13.3409065,
        52.5254591
      ]
    }
  }, {
    "type": "Feature",
    "properties": {
      "name": "Johanna David",
      "address": "Joachimstraße 2",
      "deport": "1941-10-18",
      "murder": "Ghetto Litzmannstadt \/ Łódź",
      "death": "1945-05-08"
    },
    "geometry": {
      "type": "Point",
      "coordinates": [
        13.57,
        52.4529
      ]
    }
  }, {
    "type": "Feature",
    "properties": {
      "name": "Paula Davidsohn",
      "address": "Rosenthaler Str. 40\/41",
      "deport": "1943-06-30",
      "murder": "Auschwitz",
      "death": "1945-05-08"
    },
    "geometry": {
      "type": "Point",
      "coordinates": [
        13.4025359,
        52.5240131
      ]
    }
  }, {
    "type": "Feature",
    "properties": {
      "name": "Ury Davidsohn",
      "address": "Rosenthaler Str. 40\/41",
      "deport": "1943-06-30",
      "murder": "Auschwitz",
      "death": "1945-05-08"
    },
    "geometry": {
      "type": "Point",
      "coordinates": [
        13.4025359,
        52.5240131
      ]
    }
  }, {
    "type": "Feature",
    "properties": {
      "name": "Erich Dawideit",
      "address": "Brunnenstr. 118",
      "deport": "1945-05-08",
      "murder": "Keuprulu \/ Veles",
      "death": "1945-05-08"
    },
    "geometry": {
      "type": "Point",
      "coordinates": [
        13.3931797,
        52.5413898
      ]
    }
  }, {
    "type": "Feature",
    "properties": {
      "name": "Anna Demloff",
      "address": "Sprengelstr. 14",
      "deport": "1945-05-08",
      "murder": "Tötungsanstalt Hartheim",
      "death": "1940-07-03"
    },
    "geometry": {
      "type": "Point",
      "coordinates": [
        13.35512,
        52.54208999999999
      ]
    }
  }, {
    "type": "Feature",
    "properties": {
      "name": "James Deutsch",
      "address": "Große Hamburger Str. 31",
      "deport": "1945-05-08",
      "murder": "Sachsenhausen",
      "death": "1942-10-29"
    },
    "geometry": {
      "type": "Point",
      "coordinates": [
        13.3990039,
        52.52566419999999
      ]
    }
  }, {
    "type": "Feature",
    "properties": {
      "name": "Margarete Draeger",
      "address": "Weinmeisterstr.16\/17",
      "deport": "1944-08-10",
      "murder": "Auschwitz",
      "death": "1945-05-08"
    },
    "geometry": {
      "type": "Point",
      "coordinates": [
        13.40484,
        52.52599
      ]
    }
  }, {
    "type": "Feature",
    "properties": {
      "name": "Moshe Leib Durst",
      "address": "Rückerstr. 7",
      "deport": "1945-05-08",
      "murder": "Auschwitz",
      "death": "1945-05-08"
    },
    "geometry": {
      "type": "Point",
      "coordinates": [
        13.40677,
        52.5282
      ]
    }
  }, {
    "type": "Feature",
    "properties": {
      "name": "Esther Durst",
      "address": "Rückerstr. 7",
      "deport": "1945-05-08",
      "murder": "Auschwitz",
      "death": "1945-05-08"
    },
    "geometry": {
      "type": "Point",
      "coordinates": [
        13.40677,
        52.5282
      ]
    }
  }, {
    "type": "Feature",
    "properties": {
      "name": "Fanny Durst",
      "address": "Rückerstr. 7",
      "deport": "1939-07-24",
      "murder": "Auschwitz",
      "death": "1945-05-08"
    },
    "geometry": {
      "type": "Point",
      "coordinates": [
        13.40677,
        52.5282
      ]
    }
  }, {
    "type": "Feature",
    "properties": {
      "name": "Jenny Durst",
      "address": "Rückerstr. 7",
      "deport": "1945-05-08",
      "murder": "place of death unknown",
      "death": "1945-05-08"
    },
    "geometry": {
      "type": "Point",
      "coordinates": [
        13.40677,
        52.5282
      ]
    }
  }, {
    "type": "Feature",
    "properties": {
      "name": "Minna Ehrenwerth",
      "address": "Elberfelder Str. 16",
      "deport": "1943-01-29",
      "murder": "Auschwitz",
      "death": "1945-05-08"
    },
    "geometry": {
      "type": "Point",
      "coordinates": [
        13.33501,
        52.52206
      ]
    }
  }, {
    "type": "Feature",
    "properties": {
      "name": "Josef Emanuel",
      "address": "Wullenweberstr. 11",
      "deport": "1942-10-29",
      "murder": "Ghetto Theresienstadt",
      "death": "1942-11-18"
    },
    "geometry": {
      "type": "Point",
      "coordinates": [
        13.3308198,
        52.5192118
      ]
    }
  }, {
    "type": "Feature",
    "properties": {
      "name": "Harry Ephraim",
      "address": "Klopstockstr. 13-17",
      "deport": "1942-10-26",
      "murder": "Ghetto Riga",
      "death": "1942-10-29"
    },
    "geometry": {
      "type": "Point",
      "coordinates": [
        13.2319613,
        52.4445381
      ]
    }
  }, {
    "type": "Feature",
    "properties": {
      "name": "Ruth Ephraim",
      "address": "Klopstockstr. 13-17",
      "deport": "1942-10-26",
      "murder": "Ghetto Riga",
      "death": "1942-10-29"
    },
    "geometry": {
      "type": "Point",
      "coordinates": [
        13.2319613,
        52.4445381
      ]
    }
  }, {
    "type": "Feature",
    "properties": {
      "name": "Simon Ephraim",
      "address": "Klopstockstr. 13-17",
      "deport": "1942-10-26",
      "murder": "Ghetto Riga",
      "death": "1942-10-29"
    },
    "geometry": {
      "type": "Point",
      "coordinates": [
        13.2319613,
        52.4445381
      ]
    }
  }, {
    "type": "Feature",
    "properties": {
      "name": "Mirjam Ephraim",
      "address": "Klopstockstr. 13-17",
      "deport": "1942-10-26",
      "murder": "Ghetto Riga",
      "death": "1942-10-29"
    },
    "geometry": {
      "type": "Point",
      "coordinates": [
        13.2319613,
        52.4445381
      ]
    }
  }, {
    "type": "Feature",
    "properties": {
      "name": "Manfred Ephraim",
      "address": "Klopstockstr. 13-17",
      "deport": "1942-10-26",
      "murder": "Ghetto Riga",
      "death": "1942-10-29"
    },
    "geometry": {
      "type": "Point",
      "coordinates": [
        13.2319613,
        52.4445381
      ]
    }
  }, {
    "type": "Feature",
    "properties": {
      "name": "Sally Epstein",
      "address": "Max Beer Str. 48",
      "deport": "1945-05-08",
      "murder": "Berlin",
      "death": "1935-04-10"
    },
    "geometry": {
      "type": "Point",
      "coordinates": [
        13.4094171,
        52.5273462
      ]
    }
  }, {
    "type": "Feature",
    "properties": {
      "name": "Julius Falk",
      "address": "Solinger Str. 1",
      "deport": "1943-02-26",
      "murder": "Auschwitz",
      "death": "1945-05-08"
    },
    "geometry": {
      "type": "Point",
      "coordinates": [
        13.3351267,
        52.52030629999999
      ]
    }
  }, {
    "type": "Feature",
    "properties": {
      "name": "Josefine Ella Falk",
      "address": "Solinger Str. 1",
      "deport": "1943-02-26",
      "murder": "Auschwitz",
      "death": "1945-05-08"
    },
    "geometry": {
      "type": "Point",
      "coordinates": [
        13.3351267,
        52.52030629999999
      ]
    }
  }, {
    "type": "Feature",
    "properties": {
      "name": "Ingeborg Amalie Falk",
      "address": "Solinger Str. 1",
      "deport": "1943-02-26",
      "murder": "Auschwitz",
      "death": "1945-05-08"
    },
    "geometry": {
      "type": "Point",
      "coordinates": [
        13.3351267,
        52.52030629999999
      ]
    }
  }, {
    "type": "Feature",
    "properties": {
      "name": "Thiene Feder",
      "address": "Karl Liebknecht Str. 9\/11",
      "deport": "1942-08-07",
      "murder": "Maly Trostinec (bei Minsk)",
      "death": "1945-05-08"
    },
    "geometry": {
      "type": "Point",
      "coordinates": [
        13.406281,
        52.5213
      ]
    }
  }, {
    "type": "Feature",
    "properties": {
      "name": "Iro Feit",
      "address": "Torstr. 89",
      "deport": "1945-05-08",
      "murder": "place of death unknown",
      "death": "1945-05-08"
    },
    "geometry": {
      "type": "Point",
      "coordinates": [
        13.40585,
        52.52977
      ]
    }
  }, {
    "type": "Feature",
    "properties": {
      "name": "Sara Ryfka Feit",
      "address": "Torstr. 89",
      "deport": "1943-03-04",
      "murder": "Auschwitz",
      "death": "1945-05-08"
    },
    "geometry": {
      "type": "Point",
      "coordinates": [
        13.40585,
        52.52977
      ]
    }
  }, {
    "type": "Feature",
    "properties": {
      "name": "Berthold Feit",
      "address": "Torstr. 89",
      "deport": "1943-03-04",
      "murder": "Auschwitz",
      "death": "1945-05-08"
    },
    "geometry": {
      "type": "Point",
      "coordinates": [
        13.40585,
        52.52977
      ]
    }
  }, {
    "type": "Feature",
    "properties": {
      "name": "Clara Fichtmann",
      "address": "Holzmarktstraße 54-56",
      "deport": "1942-06-05",
      "murder": "Auschwitz",
      "death": "1945-05-08"
    },
    "geometry": {
      "type": "Point",
      "coordinates": [
        13.4230876,
        52.5144165
      ]
    }
  }, {
    "type": "Feature",
    "properties": {
      "name": "Leo Fichtmann",
      "address": "Holzmarktstraße 54-56",
      "deport": "1945-05-08",
      "murder": "Sachsenhausen",
      "death": "1942-05-28"
    },
    "geometry": {
      "type": "Point",
      "coordinates": [
        13.4230876,
        52.5144165
      ]
    }
  }, {
    "type": "Feature",
    "properties": {
      "name": "Emanuel Fink",
      "address": "Große Hamburger Str. 29",
      "deport": "1942-08-15",
      "murder": "Ghetto Riga",
      "death": "1945-05-08"
    },
    "geometry": {
      "type": "Point",
      "coordinates": [
        13.399192,
        52.5253025
      ]
    }
  }, {
    "type": "Feature",
    "properties": {
      "name": "Regina Fink",
      "address": "Große Hamburger Str. 29",
      "deport": "1942-08-15",
      "murder": "Ghetto Riga",
      "death": "1942-08-18"
    },
    "geometry": {
      "type": "Point",
      "coordinates": [
        13.399192,
        52.5253025
      ]
    }
  }, {
    "type": "Feature",
    "properties": {
      "name": "Max Meyer Finkelstein",
      "address": "Hussitenstr. 6",
      "deport": "1942-01-25",
      "murder": "Ghetto Riga",
      "death": "1945-05-08"
    },
    "geometry": {
      "type": "Point",
      "coordinates": [
        13.3900018,
        52.5370074
      ]
    }
  }, {
    "type": "Feature",
    "properties": {
      "name": "Martha Finkelstein",
      "address": "Hussitenstr. 6",
      "deport": "1942-01-25",
      "murder": "Ghetto Riga",
      "death": "1945-05-08"
    },
    "geometry": {
      "type": "Point",
      "coordinates": [
        13.3900018,
        52.5370074
      ]
    }
  }, {
    "type": "Feature",
    "properties": {
      "name": "Hermann Finkelstein",
      "address": "Hussitenstr. 6",
      "deport": "1943-03-03",
      "murder": "Auschwitz",
      "death": "1945-05-08"
    },
    "geometry": {
      "type": "Point",
      "coordinates": [
        13.3900018,
        52.5370074
      ]
    }
  }, {
    "type": "Feature",
    "properties": {
      "name": "Henriette Fischer",
      "address": "Genthiner Str. 46",
      "deport": "1942-09-14",
      "murder": "Ghetto Theresienstadt",
      "death": "1945-05-08"
    },
    "geometry": {
      "type": "Point",
      "coordinates": [
        13.35827,
        52.50235
      ]
    }
  }, {
    "type": "Feature",
    "properties": {
      "name": "Martin Fleischmann",
      "address": "Stockholmer Str. 28",
      "deport": "1945-05-08",
      "murder": "Berlin",
      "death": "1945-05-08"
    },
    "geometry": {
      "type": "Point",
      "coordinates": [
        13.38379,
        52.56081
      ]
    }
  }, {
    "type": "Feature",
    "properties": {
      "name": "Sonja Fleischmann",
      "address": "Stockholmer Str. 28",
      "deport": "1945-05-08",
      "murder": "Berlin",
      "death": "1935-01-01"
    },
    "geometry": {
      "type": "Point",
      "coordinates": [
        13.38379,
        52.56081
      ]
    }
  }, {
    "type": "Feature",
    "properties": {
      "name": "Otto Frank",
      "address": "Nordufer 14",
      "deport": "1945-05-08",
      "murder": "Berlin",
      "death": "1936-07-20"
    },
    "geometry": {
      "type": "Point",
      "coordinates": [
        13.35072,
        52.53977
      ]
    }
  }, {
    "type": "Feature",
    "properties": {
      "name": "Ruth Freudenthal",
      "address": "Bochumer Str. 18",
      "deport": "1942-12-09",
      "murder": "Auschwitz",
      "death": "1945-05-08"
    },
    "geometry": {
      "type": "Point",
      "coordinates": [
        13.33867,
        52.52315
      ]
    }
  }, {
    "type": "Feature",
    "properties": {
      "name": "Heinz Hermann Freudenthal",
      "address": "Bochumer Str. 18",
      "deport": "1942-12-09",
      "murder": "Auschwitz",
      "death": "1945-05-08"
    },
    "geometry": {
      "type": "Point",
      "coordinates": [
        13.33867,
        52.52315
      ]
    }
  }, {
    "type": "Feature",
    "properties": {
      "name": "Wilhelm Freundlich",
      "address": "Altonaer Str. 26",
      "deport": "1943-02-03",
      "murder": "Auschwitz",
      "death": "1945-05-08"
    },
    "geometry": {
      "type": "Point",
      "coordinates": [
        13.3394,
        52.51935
      ]
    }
  }, {
    "type": "Feature",
    "properties": {
      "name": "Max Freundlich",
      "address": "Altonaer Str. 26",
      "deport": "1942-07-24",
      "murder": "Ghetto Theresienstadt",
      "death": "1942-09-10"
    },
    "geometry": {
      "type": "Point",
      "coordinates": [
        13.3394,
        52.51935
      ]
    }
  }, {
    "type": "Feature",
    "properties": {
      "name": "Irma Freundlich",
      "address": "Altonaer Str. 26",
      "deport": "1943-03-03",
      "murder": "place of death unknown",
      "death": "1945-05-08"
    },
    "geometry": {
      "type": "Point",
      "coordinates": [
        13.3394,
        52.51935
      ]
    }
  }, {
    "type": "Feature",
    "properties": {
      "name": "Walter Freundlich",
      "address": "Altonaer Str. 26",
      "deport": "1943-03-03",
      "murder": "Auschwitz",
      "death": "1945-05-08"
    },
    "geometry": {
      "type": "Point",
      "coordinates": [
        13.3394,
        52.51935
      ]
    }
  }, {
    "type": "Feature",
    "properties": {
      "name": "Emil Fridberg",
      "address": "Köpenicker Str. 106",
      "deport": "1945-05-08",
      "murder": "Berlin",
      "death": "1938-06-10"
    },
    "geometry": {
      "type": "Point",
      "coordinates": [
        13.5632269,
        52.4962616
      ]
    }
  }, {
    "type": "Feature",
    "properties": {
      "name": "Berthold Auerbach",
      "address": "Magdeburger Platz 1",
      "deport": "1942-12-14",
      "murder": "Minsk",
      "death": "1945-05-08"
    },
    "geometry": {
      "type": "Point",
      "coordinates": [
        13.3595095,
        52.5032699
      ]
    }
  }, {
    "type": "Feature",
    "properties": {
      "name": "Alexander Fromm",
      "address": "Kirchstr. 7",
      "deport": "1941-11-14",
      "murder": "Ghetto Minsk",
      "death": "1945-05-08"
    },
    "geometry": {
      "type": "Point",
      "coordinates": [
        13.20384,
        52.42501
      ]
    }
  }, {
    "type": "Feature",
    "properties": {
      "name": "Abraham Fromm",
      "address": "Potsdamer Str. 102",
      "deport": "1941-11-17",
      "murder": "Ghetto Kowno \/ Kaunas",
      "death": "1941-11-25"
    },
    "geometry": {
      "type": "Point",
      "coordinates": [
        13.3636,
        52.50162
      ]
    }
  }, {
    "type": "Feature",
    "properties": {
      "name": "Ida Fulder",
      "address": "Bochumer Str. 25",
      "deport": "1943-03-12",
      "murder": "Auschwitz",
      "death": "1945-05-08"
    },
    "geometry": {
      "type": "Point",
      "coordinates": [
        13.33819,
        52.52475
      ]
    }
  }, {
    "type": "Feature",
    "properties": {
      "name": "Gustav Fulder",
      "address": "Bochumer Str. 25",
      "deport": "1943-03-12",
      "murder": "Auschwitz",
      "death": "1945-05-08"
    },
    "geometry": {
      "type": "Point",
      "coordinates": [
        13.33819,
        52.52475
      ]
    }
  }, {
    "type": "Feature",
    "properties": {
      "name": "Eva Sophie Fulder",
      "address": "Bochumer Str. 25",
      "deport": "1943-03-12",
      "murder": "Auschwitz",
      "death": "1945-05-08"
    },
    "geometry": {
      "type": "Point",
      "coordinates": [
        13.33819,
        52.52475
      ]
    }
  }, {
    "type": "Feature",
    "properties": {
      "name": "Fritz Fulder",
      "address": "Bochumer Str. 25",
      "deport": "1943-03-12",
      "murder": "Auschwitz",
      "death": "1945-05-08"
    },
    "geometry": {
      "type": "Point",
      "coordinates": [
        13.33819,
        52.52475
      ]
    }
  }, {
    "type": "Feature",
    "properties": {
      "name": "Max Fürst",
      "address": "Zolastr. 1",
      "deport": "1945-05-08",
      "murder": "place of death unknown",
      "death": "1945-05-08"
    },
    "geometry": {
      "type": "Point",
      "coordinates": [
        13.4113,
        52.52797
      ]
    }
  }, {
    "type": "Feature",
    "properties": {
      "name": "Heinrich Gabel",
      "address": "Unter den Linden 6",
      "deport": "1944-09-06",
      "murder": "Auschwitz",
      "death": "1945-02-28"
    },
    "geometry": {
      "type": "Point",
      "coordinates": [
        13.39282,
        52.51806
      ]
    }
  }, {
    "type": "Feature",
    "properties": {
      "name": "Richard Gattel",
      "address": "Prinzenallee 57",
      "deport": "1942-09-11",
      "murder": "Ghetto Theresienstadt",
      "death": "1943-01-29"
    },
    "geometry": {
      "type": "Point",
      "coordinates": [
        13.3855115,
        52.5581639
      ]
    }
  }, {
    "type": "Feature",
    "properties": {
      "name": "Ella Gattel",
      "address": "Prinzenallee 57",
      "deport": "1942-09-11",
      "murder": "Ghetto Theresienstadt",
      "death": "1944-03-15"
    },
    "geometry": {
      "type": "Point",
      "coordinates": [
        13.3855115,
        52.5581639
      ]
    }
  }, {
    "type": "Feature",
    "properties": {
      "name": "Grete Gelbstein",
      "address": "Michaelkirchstr. 5\/6",
      "deport": "1942-04-02",
      "murder": "place of death unknown",
      "death": "1945-05-08"
    },
    "geometry": {
      "type": "Point",
      "coordinates": [
        13.4203596,
        52.5067988
      ]
    }
  }, {
    "type": "Feature",
    "properties": {
      "name": "Leonhard Gelbstein",
      "address": "Michaelkirchstr. 5\/6",
      "deport": "1942-08-15",
      "murder": "Ghetto Riga",
      "death": "1942-08-18"
    },
    "geometry": {
      "type": "Point",
      "coordinates": [
        13.4203596,
        52.5067988
      ]
    }
  }, {
    "type": "Feature",
    "properties": {
      "name": "Jenny (Jeanette) Gelbstein",
      "address": "Michaelkirchstr. 5\/6",
      "deport": "1943-03-17",
      "murder": "Ghetto Theresienstadt",
      "death": "1944-01-27"
    },
    "geometry": {
      "type": "Point",
      "coordinates": [
        13.4203596,
        52.5067988
      ]
    }
  }, {
    "type": "Feature",
    "properties": {
      "name": "Recha Gerechter",
      "address": "Elberfelder Straße 14",
      "deport": "1941-11-14",
      "murder": "Ghetto Minsk",
      "death": "1945-05-08"
    },
    "geometry": {
      "type": "Point",
      "coordinates": [
        13.33505,
        52.52242
      ]
    }
  }, {
    "type": "Feature",
    "properties": {
      "name": "Markus Gersten",
      "address": "Altonaer Str. 26",
      "deport": "1942-08-15",
      "murder": "Ghetto Riga",
      "death": "1942-08-18"
    },
    "geometry": {
      "type": "Point",
      "coordinates": [
        13.3394,
        52.51935
      ]
    }
  }, {
    "type": "Feature",
    "properties": {
      "name": "Heinz Joachim Glatt",
      "address": "Annenstr. 3",
      "deport": "1942-08-15",
      "murder": "Auschwitz",
      "death": "1942-10-12"
    },
    "geometry": {
      "type": "Point",
      "coordinates": [
        13.4161818,
        52.5080859
      ]
    }
  }, {
    "type": "Feature",
    "properties": {
      "name": "Norbert Naphtali Glatt",
      "address": "Annenstr. 3",
      "deport": "1942-08-15",
      "murder": "Auschwitz",
      "death": "1942-10-04"
    },
    "geometry": {
      "type": "Point",
      "coordinates": [
        13.4161818,
        52.5080859
      ]
    }
  }, {
    "type": "Feature",
    "properties": {
      "name": "Jenny Glück",
      "address": "Rosa-Luxemburg-Str. 18",
      "deport": "1943-02-19",
      "murder": "Auschwitz",
      "death": "1945-05-08"
    },
    "geometry": {
      "type": "Point",
      "coordinates": [
        13.41057,
        52.52497
      ]
    }
  }, {
    "type": "Feature",
    "properties": {
      "name": "Erika Goldberg",
      "address": "Sebastianstr. 73",
      "deport": "1942-07-21",
      "murder": "Treblinka",
      "death": "1945-05-08"
    },
    "geometry": {
      "type": "Point",
      "coordinates": [
        13.41052,
        52.50575
      ]
    }
  }, {
    "type": "Feature",
    "properties": {
      "name": "Alfred Goldstaub",
      "address": "Unter den Linden 6",
      "deport": "1942-10-26",
      "murder": "Ghetto Riga",
      "death": "1942-10-29"
    },
    "geometry": {
      "type": "Point",
      "coordinates": [
        13.39282,
        52.51806
      ]
    }
  }, {
    "type": "Feature",
    "properties": {
      "name": "Israel Goldstein",
      "address": "Zehdenicker Str. 25",
      "deport": "1945-05-08",
      "murder": "Kolomea \/ Kolomyja",
      "death": "1945-05-08"
    },
    "geometry": {
      "type": "Point",
      "coordinates": [
        13.4061408,
        52.5303135
      ]
    }
  }, {
    "type": "Feature",
    "properties": {
      "name": "Dina Goldstein",
      "address": "Zehdenicker Str. 25",
      "deport": "1945-05-08",
      "murder": "Ghetto Kolomea \/ Kolomyja",
      "death": "1942-01-01"
    },
    "geometry": {
      "type": "Point",
      "coordinates": [
        13.4061408,
        52.5303135
      ]
    }
  }, {
    "type": "Feature",
    "properties": {
      "name": "Alfred Goldstein",
      "address": "Zehdenicker Str. 25",
      "deport": "1945-05-08",
      "murder": "Ghetto Kolomea \/ Kolomyja",
      "death": "1945-05-08"
    },
    "geometry": {
      "type": "Point",
      "coordinates": [
        13.4061408,
        52.5303135
      ]
    }
  }, {
    "type": "Feature",
    "properties": {
      "name": "Herbert Gollnow",
      "address": "Feldzeugmeisterstr. 5",
      "deport": "1945-05-08",
      "murder": "Strafgefängnis Berlin-Tegel",
      "death": "1943-02-12"
    },
    "geometry": {
      "type": "Point",
      "coordinates": [
        13.24384,
        52.54291
      ]
    }
  }, {
    "type": "Feature",
    "properties": {
      "name": "Bertha Gottschalk",
      "address": "Bartningallee 7",
      "deport": "1942-09-11",
      "murder": "Ghetto Theresienstadt",
      "death": "1942-11-23"
    },
    "geometry": {
      "type": "Point",
      "coordinates": [
        13.34361,
        52.51933
      ]
    }
  }, {
    "type": "Feature",
    "properties": {
      "name": "Benno Gradenwitz",
      "address": "Cuxhavener Straße 5",
      "deport": "1943-03-03",
      "murder": "Auschwitz",
      "death": "1945-05-08"
    },
    "geometry": {
      "type": "Point",
      "coordinates": [
        13.3390546,
        52.5173625
      ]
    }
  }, {
    "type": "Feature",
    "properties": {
      "name": "Julius Grau",
      "address": "Flotowstr. 10",
      "deport": "1941-10-18",
      "murder": "Chełmno \/ Kulmhof",
      "death": "1945-05-08"
    },
    "geometry": {
      "type": "Point",
      "coordinates": [
        13.3172641,
        52.4484884
      ]
    }
  }, {
    "type": "Feature",
    "properties": {
      "name": "Luise Grau",
      "address": "Flotowstr. 10",
      "deport": "1941-10-18",
      "murder": "Chełmno \/ Kulmhof",
      "death": "1942-07-05"
    },
    "geometry": {
      "type": "Point",
      "coordinates": [
        13.3172641,
        52.4484884
      ]
    }
  }, {
    "type": "Feature",
    "properties": {
      "name": "Georg Sally Gross",
      "address": "Torstr. 223",
      "deport": "1945-05-08",
      "murder": "Berlin",
      "death": "1944-03-03"
    },
    "geometry": {
      "type": "Point",
      "coordinates": [
        13.38822,
        52.52779
      ]
    }
  }, {
    "type": "Feature",
    "properties": {
      "name": "Flora Gross",
      "address": "Torstr. 223",
      "deport": "1945-05-08",
      "murder": "Berlin",
      "death": "1944-03-03"
    },
    "geometry": {
      "type": "Point",
      "coordinates": [
        13.38822,
        52.52779
      ]
    }
  }, {
    "type": "Feature",
    "properties": {
      "name": "Mary (Marie) Gruft",
      "address": "Steinstr. 12",
      "deport": "1942-01-25",
      "murder": "Stutthof",
      "death": "1945-05-08"
    },
    "geometry": {
      "type": "Point",
      "coordinates": [
        13.40535,
        52.52717
      ]
    }
  }, {
    "type": "Feature",
    "properties": {
      "name": "Any Gruft",
      "address": "Steinstr. 12",
      "deport": "1942-01-25",
      "murder": "Stutthof",
      "death": "1945-05-08"
    },
    "geometry": {
      "type": "Point",
      "coordinates": [
        13.40535,
        52.52717
      ]
    }
  }, {
    "type": "Feature",
    "properties": {
      "name": "Regina Gruft",
      "address": "Steinstr. 12",
      "deport": "1942-01-25",
      "murder": "Ghetto Riga",
      "death": "1945-05-08"
    },
    "geometry": {
      "type": "Point",
      "coordinates": [
        13.40535,
        52.52717
      ]
    }
  }, {
    "type": "Feature",
    "properties": {
      "name": "Elisabeth Grünbaum",
      "address": "Solinger Straße 10",
      "deport": "1945-05-08",
      "murder": "place of death unknown",
      "death": "1945-05-08"
    },
    "geometry": {
      "type": "Point",
      "coordinates": [
        13.3350916,
        52.519782
      ]
    }
  }, {
    "type": "Feature",
    "properties": {
      "name": "Georg Grünbaum",
      "address": "Solinger Straße 10",
      "deport": "1945-05-08",
      "murder": "Madrid",
      "death": "1945-05-08"
    },
    "geometry": {
      "type": "Point",
      "coordinates": [
        13.3350916,
        52.519782
      ]
    }
  }, {
    "type": "Feature",
    "properties": {
      "name": "Ruth Grünberg",
      "address": "Fehrbelliner Str. 22",
      "deport": "1943-03-04",
      "murder": "Auschwitz",
      "death": "1945-05-08"
    },
    "geometry": {
      "type": "Point",
      "coordinates": [
        13.4039515,
        52.533446
      ]
    }
  }, {
    "type": "Feature",
    "properties": {
      "name": "Jeanette Grünberg",
      "address": "Fehrbelliner Str. 22",
      "deport": "1942-08-21",
      "murder": "Ghetto Theresienstadt",
      "death": "1942-11-15"
    },
    "geometry": {
      "type": "Point",
      "coordinates": [
        13.4039515,
        52.533446
      ]
    }
  }, {
    "type": "Feature",
    "properties": {
      "name": "Ernst Abraham Grünspach",
      "address": "Unter den Linden 6",
      "deport": "1944-09-06",
      "murder": "Auschwitz",
      "death": "1944-11-02"
    },
    "geometry": {
      "type": "Point",
      "coordinates": [
        13.39282,
        52.51806
      ]
    }
  }, {
    "type": "Feature",
    "properties": {
      "name": "Clara Grunwald",
      "address": "Klopstockstraße 19-23",
      "deport": "1943-04-19",
      "murder": "Auschwitz",
      "death": "1945-05-08"
    },
    "geometry": {
      "type": "Point",
      "coordinates": [
        13.2311416,
        52.4434154
      ]
    }
  }, {
    "type": "Feature",
    "properties": {
      "name": "Elsa Guttentag",
      "address": "Torstr. 126",
      "deport": "1942-11-29",
      "murder": "Auschwitz",
      "death": "1945-05-08"
    },
    "geometry": {
      "type": "Point",
      "coordinates": [
        13.4006702,
        52.5294067
      ]
    }
  }, {
    "type": "Feature",
    "properties": {
      "name": "Kurt Guttentag",
      "address": "Torstr. 126",
      "deport": "1942-11-29",
      "murder": "Auschwitz",
      "death": "1945-05-08"
    },
    "geometry": {
      "type": "Point",
      "coordinates": [
        13.4006702,
        52.5294067
      ]
    }
  }, {
    "type": "Feature",
    "properties": {
      "name": "Machla Haber",
      "address": "Rosa-Luxemburg-Str. 26",
      "deport": "1943-10-15",
      "murder": "Auschwitz",
      "death": "1945-05-08"
    },
    "geometry": {
      "type": "Point",
      "coordinates": [
        13.411,
        52.52554
      ]
    }
  }, {
    "type": "Feature",
    "properties": {
      "name": "Frieda Haber",
      "address": "Rosa-Luxemburg-Str. 26",
      "deport": "1943-10-15",
      "murder": "Auschwitz",
      "death": "1945-05-08"
    },
    "geometry": {
      "type": "Point",
      "coordinates": [
        13.411,
        52.52554
      ]
    }
  }, {
    "type": "Feature",
    "properties": {
      "name": "Meta Haitner",
      "address": "Torstr. 112",
      "deport": "1942-11-29",
      "murder": "Auschwitz",
      "death": "1945-05-08"
    },
    "geometry": {
      "type": "Point",
      "coordinates": [
        13.402717,
        52.5295375
      ]
    }
  }, {
    "type": "Feature",
    "properties": {
      "name": "Erika Haitner",
      "address": "Torstr. 112",
      "deport": "1942-11-29",
      "murder": "Auschwitz",
      "death": "1945-05-08"
    },
    "geometry": {
      "type": "Point",
      "coordinates": [
        13.402717,
        52.5295375
      ]
    }
  }, {
    "type": "Feature",
    "properties": {
      "name": "Rosa Halberstadt",
      "address": "Jagowstr. 2",
      "deport": "1943-03-12",
      "murder": "Auschwitz",
      "death": "1943-03-14"
    },
    "geometry": {
      "type": "Point",
      "coordinates": [
        13.33195,
        52.51912
      ]
    }
  }, {
    "type": "Feature",
    "properties": {
      "name": "Martin Hammerschmidt",
      "address": "Unter den Linden 6",
      "deport": "1943-08-04",
      "murder": "Auschwitz",
      "death": "1945-05-08"
    },
    "geometry": {
      "type": "Point",
      "coordinates": [
        13.39282,
        52.51806
      ]
    }
  }, {
    "type": "Feature",
    "properties": {
      "name": "Sophie Happ",
      "address": "Chausseestr. 6",
      "deport": "1943-03-04",
      "murder": "Auschwitz",
      "death": "1945-05-08"
    },
    "geometry": {
      "type": "Point",
      "coordinates": [
        13.38709,
        52.52827
      ]
    }
  }, {
    "type": "Feature",
    "properties": {
      "name": "Martin Happ",
      "address": "Chausseestr. 6",
      "deport": "1943-03-04",
      "murder": "Auschwitz",
      "death": "1945-05-08"
    },
    "geometry": {
      "type": "Point",
      "coordinates": [
        13.38709,
        52.52827
      ]
    }
  }, {
    "type": "Feature",
    "properties": {
      "name": "Charlotte Hartwich",
      "address": "Solinger Straße 10",
      "deport": "1945-05-08",
      "murder": "place of death unknown",
      "death": "1945-05-08"
    },
    "geometry": {
      "type": "Point",
      "coordinates": [
        13.3350916,
        52.519782
      ]
    }
  }, {
    "type": "Feature",
    "properties": {
      "name": "Erwin Hartwich",
      "address": "Solinger Straße 10",
      "deport": "1945-05-08",
      "murder": "place of death unknown",
      "death": "1945-05-08"
    },
    "geometry": {
      "type": "Point",
      "coordinates": [
        13.3350916,
        52.519782
      ]
    }
  }, {
    "type": "Feature",
    "properties": {
      "name": "Karoline Hecht",
      "address": "Brunnenstr. 195",
      "deport": "1943-03-17",
      "murder": "Ghetto Theresienstadt",
      "death": "1944-12-05"
    },
    "geometry": {
      "type": "Point",
      "coordinates": [
        13.40032,
        52.53024
      ]
    }
  }, {
    "type": "Feature",
    "properties": {
      "name": "Berek Hecht",
      "address": "Schleswiger Ufer 5",
      "deport": "1943-03-03",
      "murder": "place of death unknown",
      "death": "1945-05-08"
    },
    "geometry": {
      "type": "Point",
      "coordinates": [
        13.3370635,
        52.5177682
      ]
    }
  }, {
    "type": "Feature",
    "properties": {
      "name": "Sara Hecht",
      "address": "Schleswiger Ufer 5",
      "deport": "1943-03-03",
      "murder": "Auschwitz",
      "death": "1945-05-08"
    },
    "geometry": {
      "type": "Point",
      "coordinates": [
        13.3370635,
        52.5177682
      ]
    }
  }, {
    "type": "Feature",
    "properties": {
      "name": "Josef Joseph Hecht",
      "address": "Schleswiger Ufer 5",
      "deport": "1943-03-01",
      "murder": "Auschwitz",
      "death": "1945-05-08"
    },
    "geometry": {
      "type": "Point",
      "coordinates": [
        13.3370635,
        52.5177682
      ]
    }
  }, {
    "type": "Feature",
    "properties": {
      "name": "Paul Hegenbart",
      "address": "Legiendamm 4",
      "deport": "1945-05-08",
      "murder": "Brandenburg-Görden",
      "death": "1945-02-26"
    },
    "geometry": {
      "type": "Point",
      "coordinates": [
        13.41711,
        52.50607
      ]
    }
  }, {
    "type": "Feature",
    "properties": {
      "name": "Fritz Heilscher",
      "address": "Strelitzer Str. 58",
      "deport": "1945-05-08",
      "murder": "KZ Sachsenhausen",
      "death": "1942-07-21"
    },
    "geometry": {
      "type": "Point",
      "coordinates": [
        13.39379,
        52.53570000000001
      ]
    }
  }, {
    "type": "Feature",
    "properties": {
      "name": "Dorothea Henschel",
      "address": "Solinger Straße 10",
      "deport": "1942-09-02",
      "murder": "Ghetto Minsk",
      "death": "1945-05-08"
    },
    "geometry": {
      "type": "Point",
      "coordinates": [
        13.3350916,
        52.519782
      ]
    }
  }, {
    "type": "Feature",
    "properties": {
      "name": "Eduard Henschel",
      "address": "Solinger Straße 10",
      "deport": "1945-05-08",
      "murder": "place of death unknown",
      "death": "1945-05-08"
    },
    "geometry": {
      "type": "Point",
      "coordinates": [
        13.3350916,
        52.519782
      ]
    }
  }, {
    "type": "Feature",
    "properties": {
      "name": "Bertha Herbst",
      "address": "Rückerstr. 1",
      "deport": "1944-01-10",
      "murder": "Ghetto Theresienstadt",
      "death": "1944-10-07"
    },
    "geometry": {
      "type": "Point",
      "coordinates": [
        13.406953,
        52.5274976
      ]
    }
  }, {
    "type": "Feature",
    "properties": {
      "name": "Kurt Herrmann",
      "address": "Alexanderstraße\/Holzmarktstraße 75",
      "deport": "1943-02-03",
      "murder": "Auschwitz",
      "death": "1945-05-08"
    },
    "geometry": {
      "type": "Point",
      "coordinates": [
        13.41879,
        52.51599
      ]
    }
  }, {
    "type": "Feature",
    "properties": {
      "name": "Elli Herrmann",
      "address": "Alexanderstraße\/Holzmarktstraße 75",
      "deport": "1943-02-03",
      "murder": "Auschwitz",
      "death": "1945-05-08"
    },
    "geometry": {
      "type": "Point",
      "coordinates": [
        13.41879,
        52.51599
      ]
    }
  }, {
    "type": "Feature",
    "properties": {
      "name": "Rudolf M. Herrmann",
      "address": "Alexanderstraße\/Holzmarktstraße 75",
      "deport": "1943-02-03",
      "murder": "Natzweiler-Struthof",
      "death": "1945-05-08"
    },
    "geometry": {
      "type": "Point",
      "coordinates": [
        13.41879,
        52.51599
      ]
    }
  }, {
    "type": "Feature",
    "properties": {
      "name": "Erna Herrmann",
      "address": "Brunnenstr. 41",
      "deport": "1943-05-17",
      "murder": "Auschwitz",
      "death": "1945-05-08"
    },
    "geometry": {
      "type": "Point",
      "coordinates": [
        13.39801,
        52.53668
      ]
    }
  }, {
    "type": "Feature",
    "properties": {
      "name": "Minna Herrmann",
      "address": "Keibelstr. 4-5",
      "deport": "1943-03-04",
      "murder": "Auschwitz",
      "death": "1945-05-08"
    },
    "geometry": {
      "type": "Point",
      "coordinates": [
        13.4165265,
        52.5257379
      ]
    }
  }, {
    "type": "Feature",
    "properties": {
      "name": "Gerda Herschfeld",
      "address": "Am Heizkraftwerk Mitte",
      "deport": "1943-03-02",
      "murder": "Auschwitz",
      "death": "1945-05-08"
    },
    "geometry": {
      "type": "Point",
      "coordinates": [
        13.3830683,
        52.5306438
      ]
    }
  }, {
    "type": "Feature",
    "properties": {
      "name": "Alice Herschfeld",
      "address": "Am Heizkraftwerk Mitte",
      "deport": "1943-03-03",
      "murder": "Auschwitz",
      "death": "1945-05-08"
    },
    "geometry": {
      "type": "Point",
      "coordinates": [
        13.3830683,
        52.5306438
      ]
    }
  }, {
    "type": "Feature",
    "properties": {
      "name": "Jakob Herschfeld",
      "address": "Am Heizkraftwerk Mitte",
      "deport": "1943-03-03",
      "murder": "Auschwitz",
      "death": "1945-05-08"
    },
    "geometry": {
      "type": "Point",
      "coordinates": [
        13.3830683,
        52.5306438
      ]
    }
  }, {
    "type": "Feature",
    "properties": {
      "name": "Walter Herz",
      "address": "Unter den Linden 6",
      "deport": "1941-01-22",
      "murder": "place of death unknown",
      "death": "1942-01-01"
    },
    "geometry": {
      "type": "Point",
      "coordinates": [
        13.39282,
        52.51806
      ]
    }
  }, {
    "type": "Feature",
    "properties": {
      "name": "Louis Hirsch",
      "address": "Altonaer Str. 26",
      "deport": "1942-07-24",
      "murder": "place of death unknown",
      "death": "1942-09-09"
    },
    "geometry": {
      "type": "Point",
      "coordinates": [
        13.3394,
        52.51935
      ]
    }
  }, {
    "type": "Feature",
    "properties": {
      "name": "Gertrud Hirsch",
      "address": "Altonaer Str. 26",
      "deport": "1942-07-24",
      "murder": "Auschwitz",
      "death": "1945-05-08"
    },
    "geometry": {
      "type": "Point",
      "coordinates": [
        13.3394,
        52.51935
      ]
    }
  }, {
    "type": "Feature",
    "properties": {
      "name": "Jenny Hirsch",
      "address": "Gipsstraße 9",
      "deport": "1942-10-26",
      "murder": "place of death unknown",
      "death": "1945-05-08"
    },
    "geometry": {
      "type": "Point",
      "coordinates": [
        13.4003177,
        52.5268306
      ]
    }
  }, {
    "type": "Feature",
    "properties": {
      "name": "Friedrich Hirsch",
      "address": "Gipsstraße 9",
      "deport": "1942-11-29",
      "murder": "Auschwitz",
      "death": "1945-05-08"
    },
    "geometry": {
      "type": "Point",
      "coordinates": [
        13.4003177,
        52.5268306
      ]
    }
  }, {
    "type": "Feature",
    "properties": {
      "name": "Haimann Hirsch",
      "address": "Gipsstraße 9",
      "deport": "1943-02-03",
      "murder": "Auschwitz",
      "death": "1945-05-08"
    },
    "geometry": {
      "type": "Point",
      "coordinates": [
        13.4003177,
        52.5268306
      ]
    }
  }, {
    "type": "Feature",
    "properties": {
      "name": "Hertha Hirsch",
      "address": "Rheinsberger Straße 45",
      "deport": "1943-03-17",
      "murder": "Auschwitz",
      "death": "1945-05-08"
    },
    "geometry": {
      "type": "Point",
      "coordinates": [
        13.40291,
        52.53884
      ]
    }
  }, {
    "type": "Feature",
    "properties": {
      "name": "Adolf Hirsch",
      "address": "Rheinsberger Straße 45",
      "deport": "1943-03-17",
      "murder": "Auschwitz",
      "death": "1945-05-08"
    },
    "geometry": {
      "type": "Point",
      "coordinates": [
        13.40291,
        52.53884
      ]
    }
  }, {
    "type": "Feature",
    "properties": {
      "name": "Emma Hirsch",
      "address": "Steinstr. 26",
      "deport": "1942-01-13",
      "murder": "Ghetto Riga",
      "death": "1945-05-08"
    },
    "geometry": {
      "type": "Point",
      "coordinates": [
        13.12747,
        52.38941
      ]
    }
  }, {
    "type": "Feature",
    "properties": {
      "name": "Sophie Hirsch",
      "address": "Utrechter Straße 10",
      "deport": "1941-11-27",
      "murder": "Ghetto Riga",
      "death": "1945-05-08"
    },
    "geometry": {
      "type": "Point",
      "coordinates": [
        13.35674,
        52.54909
      ]
    }
  }, {
    "type": "Feature",
    "properties": {
      "name": "Helene Hirschberg",
      "address": "Solinger Str. 7",
      "deport": "1942-09-11",
      "murder": "Ghetto Theresienstadt",
      "death": "1942-09-24"
    },
    "geometry": {
      "type": "Point",
      "coordinates": [
        13.3342687,
        52.51910239999999
      ]
    }
  }, {
    "type": "Feature",
    "properties": {
      "name": "Edith Hirschberg",
      "address": "Solinger Str. 7",
      "deport": "1942-09-11",
      "murder": "place of death unknown",
      "death": "1945-05-08"
    },
    "geometry": {
      "type": "Point",
      "coordinates": [
        13.3342687,
        52.51910239999999
      ]
    }
  }, {
    "type": "Feature",
    "properties": {
      "name": "Berl Hirschfeld",
      "address": "Krausnickstraße 8",
      "deport": "1943-05-18",
      "murder": "Auschwitz",
      "death": "1945-05-08"
    },
    "geometry": {
      "type": "Point",
      "coordinates": [
        13.39754,
        52.52511
      ]
    }
  }, {
    "type": "Feature",
    "properties": {
      "name": "Georg Josef Hirschlaff",
      "address": "Märkisches Ufer 16\/18",
      "deport": "1942-09-14",
      "murder": "place of death unknown",
      "death": "1945-05-08"
    },
    "geometry": {
      "type": "Point",
      "coordinates": [
        13.4102024,
        52.5129152
      ]
    }
  }, {
    "type": "Feature",
    "properties": {
      "name": "Erich Hirschweh",
      "address": "Kurfürstenstraße 50",
      "deport": "1942-08-14",
      "murder": "Auschwitz",
      "death": "1945-05-08"
    },
    "geometry": {
      "type": "Point",
      "coordinates": [
        13.35749,
        52.5016
      ]
    }
  }, {
    "type": "Feature",
    "properties": {
      "name": "Walter Homann",
      "address": "Huttenstraße 12",
      "deport": "1945-05-08",
      "murder": "Berlin",
      "death": "1945-04-10"
    },
    "geometry": {
      "type": "Point",
      "coordinates": [
        13.3247974,
        52.5278271
      ]
    }
  }, {
    "type": "Feature",
    "properties": {
      "name": "Lotty Hollander",
      "address": "Oranienburger Straße 2-5",
      "deport": "1943-03-12",
      "murder": "place of death unknown",
      "death": "1945-05-08"
    },
    "geometry": {
      "type": "Point",
      "coordinates": [
        13.33402,
        52.57923
      ]
    }
  }, {
    "type": "Feature",
    "properties": {
      "name": "Gottfried Hollander",
      "address": "Oranienburger Straße 2-5",
      "deport": "1943-03-01",
      "murder": "place of death unknown",
      "death": "1945-05-08"
    },
    "geometry": {
      "type": "Point",
      "coordinates": [
        13.33402,
        52.57923
      ]
    }
  }, {
    "type": "Feature",
    "properties": {
      "name": "Herbert Leo Holz",
      "address": "Rochstr. 1",
      "deport": "1943-02-19",
      "murder": "place of death unknown",
      "death": "1945-05-08"
    },
    "geometry": {
      "type": "Point",
      "coordinates": [
        13.4073,
        52.52439
      ]
    }
  }, {
    "type": "Feature",
    "properties": {
      "name": "Liselotte Holz",
      "address": "Rochstr. 1",
      "deport": "1943-02-19",
      "murder": "KZ Buchenwald",
      "death": "1945-01-01"
    },
    "geometry": {
      "type": "Point",
      "coordinates": [
        13.4073,
        52.52439
      ]
    }
  }, {
    "type": "Feature",
    "properties": {
      "name": "Willy Holz",
      "address": "Rochstr. 1",
      "deport": "1943-03-12",
      "murder": "place of death unknown",
      "death": "1945-05-08"
    },
    "geometry": {
      "type": "Point",
      "coordinates": [
        13.4073,
        52.52439
      ]
    }
  }, {
    "type": "Feature",
    "properties": {
      "name": "Ernst Siegfried Holz",
      "address": "Rochstr. 1",
      "deport": "1943-03-17",
      "murder": "Ghetto Theresienstadt",
      "death": "1943-03-24"
    },
    "geometry": {
      "type": "Point",
      "coordinates": [
        13.4073,
        52.52439
      ]
    }
  }, {
    "type": "Feature",
    "properties": {
      "name": "Hermann Holzheim",
      "address": "Wolliner Str. 3",
      "deport": "1941-08-01",
      "murder": "KZ Dachau",
      "death": "1941-11-22"
    },
    "geometry": {
      "type": "Point",
      "coordinates": [
        13.4044994,
        52.5363331
      ]
    }
  }, {
    "type": "Feature",
    "properties": {
      "name": "Rudolph Hopp",
      "address": "Badstraße 64",
      "deport": "1942-10-19",
      "murder": "Ghetto Riga",
      "death": "1945-05-08"
    },
    "geometry": {
      "type": "Point",
      "coordinates": [
        13.38421,
        52.5505
      ]
    }
  }, {
    "type": "Feature",
    "properties": {
      "name": "Ruth Hopp",
      "address": "Badstraße 64",
      "deport": "1942-10-19",
      "murder": "Ghetto Riga",
      "death": "1945-05-08"
    },
    "geometry": {
      "type": "Point",
      "coordinates": [
        13.38421,
        52.5505
      ]
    }
  }, {
    "type": "Feature",
    "properties": {
      "name": "Joel Abel Hopp",
      "address": "Badstraße 64",
      "deport": "1942-10-19",
      "murder": "Ghetto Riga",
      "death": "1945-05-08"
    },
    "geometry": {
      "type": "Point",
      "coordinates": [
        13.38421,
        52.5505
      ]
    }
  }, {
    "type": "Feature",
    "properties": {
      "name": "Rene Hopp",
      "address": "Badstraße 64",
      "deport": "1942-10-19",
      "murder": "Ghetto Riga",
      "death": "1945-05-08"
    },
    "geometry": {
      "type": "Point",
      "coordinates": [
        13.38421,
        52.5505
      ]
    }
  }, {
    "type": "Feature",
    "properties": {
      "name": "Artur Lewinsohn",
      "address": "Konrad-Wolf-Straße 41",
      "deport": "1943-03-03",
      "murder": "Auschwitz",
      "death": "1945-05-08"
    },
    "geometry": {
      "type": "Point",
      "coordinates": [
        13.4867546,
        52.5410556
      ]
    }
  }, {
    "type": "Feature",
    "properties": {
      "name": "Walter Horwitz",
      "address": "Badstraße 61",
      "deport": "1942-12-14",
      "murder": "Ghetto Riga",
      "death": "1945-05-08"
    },
    "geometry": {
      "type": "Point",
      "coordinates": [
        13.38353,
        52.55092
      ]
    }
  }, {
    "type": "Feature",
    "properties": {
      "name": "Hilde Horwitz",
      "address": "Badstraße 61",
      "deport": "1942-12-14",
      "murder": "Ghetto Riga",
      "death": "1945-05-08"
    },
    "geometry": {
      "type": "Point",
      "coordinates": [
        13.38353,
        52.55092
      ]
    }
  }, {
    "type": "Feature",
    "properties": {
      "name": "Tana Horwitz",
      "address": "Badstraße 61",
      "deport": "1942-12-14",
      "murder": "Ghetto Riga",
      "death": "1945-05-08"
    },
    "geometry": {
      "type": "Point",
      "coordinates": [
        13.38353,
        52.55092
      ]
    }
  }, {
    "type": "Feature",
    "properties": {
      "name": "Ernst Morits Martin Horwitz",
      "address": "Unter den Linden 6",
      "deport": "1945-05-08",
      "murder": "KZ Mauthausen",
      "death": "1941-10-09"
    },
    "geometry": {
      "type": "Point",
      "coordinates": [
        13.39282,
        52.51806
      ]
    }
  }, {
    "type": "Feature",
    "properties": {
      "name": "Salomea Höxter",
      "address": "Tucholskystraße 11",
      "deport": "1942-06-13",
      "murder": "Sobibór",
      "death": "1945-05-08"
    },
    "geometry": {
      "type": "Point",
      "coordinates": [
        13.3922115,
        52.5242363
      ]
    }
  }, {
    "type": "Feature",
    "properties": {
      "name": "Richard Hurwitz",
      "address": "Turmstraße 40",
      "deport": "1943-02-03",
      "murder": "Auschwitz",
      "death": "1945-05-08"
    },
    "geometry": {
      "type": "Point",
      "coordinates": [
        13.33609,
        52.52693
      ]
    }
  }, {
    "type": "Feature",
    "properties": {
      "name": "Herta Hurwitz",
      "address": "Turmstraße 40",
      "deport": "1943-02-03",
      "murder": "Auschwitz",
      "death": "1945-05-08"
    },
    "geometry": {
      "type": "Point",
      "coordinates": [
        13.33609,
        52.52693
      ]
    }
  }, {
    "type": "Feature",
    "properties": {
      "name": "Marga Rita Hurwitz",
      "address": "Turmstraße 40",
      "deport": "1943-02-03",
      "murder": "Auschwitz",
      "death": "1945-05-08"
    },
    "geometry": {
      "type": "Point",
      "coordinates": [
        13.33609,
        52.52693
      ]
    }
  }, {
    "type": "Feature",
    "properties": {
      "name": "Mahjub (Bayume Mohamed) bin Adam Mohamed (Husen)",
      "address": "Brunnenstr. 193",
      "deport": "1945-05-08",
      "murder": "KZ Sachsenhausen",
      "death": "1944-11-24"
    },
    "geometry": {
      "type": "Point",
      "coordinates": [
        13.3989483,
        52.5305951
      ]
    }
  }, {
    "type": "Feature",
    "properties": {
      "name": "Wilfrid Israel",
      "address": "Spandauer Str. 26-32",
      "deport": "1945-05-08",
      "murder": "Golf von Biscaya",
      "death": "1943-06-01"
    },
    "geometry": {
      "type": "Point",
      "coordinates": [
        13.4083949,
        52.51739670000001
      ]
    }
  }, {
    "type": "Feature",
    "properties": {
      "name": "Kaufhaus Nathan Israel",
      "address": "Spandauer Str. 26-32",
      "deport": "1945-05-08",
      "murder": "place of death unknown",
      "death": "1945-05-08"
    },
    "geometry": {
      "type": "Point",
      "coordinates": [
        13.4083949,
        52.51739670000001
      ]
    }
  }, {
    "type": "Feature",
    "properties": {
      "name": "Kurt Isralowitz",
      "address": "Cuxhavener Straße 15",
      "deport": "1943-03-17",
      "murder": "Auschwitz",
      "death": "1945-05-08"
    },
    "geometry": {
      "type": "Point",
      "coordinates": [
        13.33829,
        52.51755
      ]
    }
  }, {
    "type": "Feature",
    "properties": {
      "name": "Berta Isralowitz",
      "address": "Cuxhavener Straße 15",
      "deport": "1943-03-17",
      "murder": "Auschwitz",
      "death": "1945-05-08"
    },
    "geometry": {
      "type": "Point",
      "coordinates": [
        13.33829,
        52.51755
      ]
    }
  }, {
    "type": "Feature",
    "properties": {
      "name": "Mathilde Mathel Jacob",
      "address": "Altonaer Str. 26",
      "deport": "1942-07-27",
      "murder": "Ghetto Theresienstadt",
      "death": "1943-03-14"
    },
    "geometry": {
      "type": "Point",
      "coordinates": [
        13.3394,
        52.51935
      ]
    }
  }, {
    "type": "Feature",
    "properties": {
      "name": "Margarete Jacob",
      "address": "Essener Straße 20",
      "deport": "1943-03-01",
      "murder": "Auschwitz",
      "death": "1945-05-08"
    },
    "geometry": {
      "type": "Point",
      "coordinates": [
        13.33723,
        52.52328
      ]
    }
  }, {
    "type": "Feature",
    "properties": {
      "name": "Moritz Jacob",
      "address": "Essener Straße 20",
      "deport": "1943-05-19",
      "murder": "Ghetto Theresienstadt",
      "death": "1945-05-08"
    },
    "geometry": {
      "type": "Point",
      "coordinates": [
        13.33723,
        52.52328
      ]
    }
  }, {
    "type": "Feature",
    "properties": {
      "name": "Ruth Rosa Jacobsohn",
      "address": "Unter den Linden 6",
      "deport": "1942-10-26",
      "murder": "Ghetto Riga",
      "death": "1942-10-29"
    },
    "geometry": {
      "type": "Point",
      "coordinates": [
        13.39282,
        52.51806
      ]
    }
  }, {
    "type": "Feature",
    "properties": {
      "name": "Johanna Jacobsthal",
      "address": "Solinger Straße 10",
      "deport": "1942-10-03",
      "murder": "Raasiku (b. Reval)",
      "death": "1945-05-08"
    },
    "geometry": {
      "type": "Point",
      "coordinates": [
        13.3350916,
        52.519782
      ]
    }
  }, {
    "type": "Feature",
    "properties": {
      "name": "Salomon Ephraim Jacobus",
      "address": "Lichtenberger Str. 31-37",
      "deport": "1945-05-08",
      "murder": "KZ Sachsenhausen",
      "death": "1945-05-08"
    },
    "geometry": {
      "type": "Point",
      "coordinates": [
        13.424972,
        52.5153416
      ]
    }
  }, {
    "type": "Feature",
    "properties": {
      "name": "Ernestine Jacoby",
      "address": "Oranienburger Str. 46\/47",
      "deport": "1942-10-03",
      "murder": "Auschwitz",
      "death": "1945-05-08"
    },
    "geometry": {
      "type": "Point",
      "coordinates": [
        13.33557,
        52.58656
      ]
    }
  }, {
    "type": "Feature",
    "properties": {
      "name": "Liselotte Jacoby",
      "address": "Oranienburger Str. 46\/47",
      "deport": "1943-03-02",
      "murder": "Auschwitz",
      "death": "1945-05-08"
    },
    "geometry": {
      "type": "Point",
      "coordinates": [
        13.33557,
        52.58656
      ]
    }
  }, {
    "type": "Feature",
    "properties": {
      "name": "Wolfgang Jacoby",
      "address": "Oranienburger Str. 46\/47",
      "deport": "1943-03-02",
      "murder": "place of death unknown",
      "death": "1945-05-08"
    },
    "geometry": {
      "type": "Point",
      "coordinates": [
        13.33557,
        52.58656
      ]
    }
  }, {
    "type": "Feature",
    "properties": {
      "name": "Ernst Jacoby",
      "address": "Oranienburger Str. 46\/47",
      "deport": "1942-10-03",
      "murder": "Auschwitz",
      "death": "1945-05-08"
    },
    "geometry": {
      "type": "Point",
      "coordinates": [
        13.33557,
        52.58656
      ]
    }
  }, {
    "type": "Feature",
    "properties": {
      "name": "Edith Jakob",
      "address": "Elberfelder Str. 16",
      "deport": "1943-02-26",
      "murder": "Auschwitz",
      "death": "1945-05-08"
    },
    "geometry": {
      "type": "Point",
      "coordinates": [
        13.33501,
        52.52206
      ]
    }
  }, {
    "type": "Feature",
    "properties": {
      "name": "Ludwig Jakob",
      "address": "Elberfelder Str. 16",
      "deport": "1943-02-26",
      "murder": "Auschwitz",
      "death": "1945-05-08"
    },
    "geometry": {
      "type": "Point",
      "coordinates": [
        13.33501,
        52.52206
      ]
    }
  }, {
    "type": "Feature",
    "properties": {
      "name": "Herbert Jakobsthal",
      "address": "Bartningallee 7",
      "deport": "1942-11-29",
      "murder": "Auschwitz",
      "death": "1945-05-08"
    },
    "geometry": {
      "type": "Point",
      "coordinates": [
        13.34361,
        52.51933
      ]
    }
  }, {
    "type": "Feature",
    "properties": {
      "name": "Herta Jakobsthal",
      "address": "Bartningallee 7",
      "deport": "1942-11-29",
      "murder": "Auschwitz",
      "death": "1945-05-08"
    },
    "geometry": {
      "type": "Point",
      "coordinates": [
        13.34361,
        52.51933
      ]
    }
  }, {
    "type": "Feature",
    "properties": {
      "name": "Herta Jalowitz",
      "address": "Calvinstraße 27",
      "deport": "1943-03-02",
      "murder": "Auschwitz",
      "death": "1945-05-08"
    },
    "geometry": {
      "type": "Point",
      "coordinates": [
        13.35217,
        52.52271
      ]
    }
  }, {
    "type": "Feature",
    "properties": {
      "name": "Kurt Jalowitz",
      "address": "Kleine Alexanderstraße 12\/13",
      "deport": "1942-08-15",
      "murder": "Riga",
      "death": "1942-08-01"
    },
    "geometry": {
      "type": "Point",
      "coordinates": [
        13.4120384,
        52.52530119999999
      ]
    }
  }, {
    "type": "Feature",
    "properties": {
      "name": "Siegfried Jalowitz",
      "address": "Kleine Alexanderstraße 12\/13",
      "deport": "1943-02-03",
      "murder": "Auschwitz",
      "death": "1945-05-08"
    },
    "geometry": {
      "type": "Point",
      "coordinates": [
        13.4120384,
        52.52530119999999
      ]
    }
  }, {
    "type": "Feature",
    "properties": {
      "name": "Erna Jalowitz",
      "address": "Kleine Alexanderstraße 12\/13",
      "deport": "1943-02-03",
      "murder": "Auschwitz",
      "death": "1945-05-08"
    },
    "geometry": {
      "type": "Point",
      "coordinates": [
        13.4120384,
        52.52530119999999
      ]
    }
  }, {
    "type": "Feature",
    "properties": {
      "name": "Alex Jastrow",
      "address": "Rosenthaler Str. 32",
      "deport": "1941-11-27",
      "murder": "Ghetto Riga",
      "death": "1945-05-08"
    },
    "geometry": {
      "type": "Point",
      "coordinates": [
        13.40291,
        52.52497
      ]
    }
  }, {
    "type": "Feature",
    "properties": {
      "name": "Erna Jastrow",
      "address": "Rosenthaler Str. 32",
      "deport": "1941-11-27",
      "murder": "Ghetto Riga",
      "death": "1945-05-08"
    },
    "geometry": {
      "type": "Point",
      "coordinates": [
        13.40291,
        52.52497
      ]
    }
  }, {
    "type": "Feature",
    "properties": {
      "name": "Thea Jastrow",
      "address": "Rosenthaler Str. 32",
      "deport": "1941-11-27",
      "murder": "Ghetto Riga",
      "death": "1945-05-08"
    },
    "geometry": {
      "type": "Point",
      "coordinates": [
        13.40291,
        52.52497
      ]
    }
  }, {
    "type": "Feature",
    "properties": {
      "name": "Jacob Joelsohn",
      "address": "Rosa-Luxemburg-Str. 18",
      "deport": "1941-11-01",
      "murder": "Chełmno \/ Kulmhof",
      "death": "1945-05-08"
    },
    "geometry": {
      "type": "Point",
      "coordinates": [
        13.41057,
        52.52497
      ]
    }
  }, {
    "type": "Feature",
    "properties": {
      "name": "Minna Joelsohn",
      "address": "Rosa-Luxemburg-Str. 18",
      "deport": "1941-11-01",
      "murder": "Łódź \/ Litzmannstadt",
      "death": "1942-03-17"
    },
    "geometry": {
      "type": "Point",
      "coordinates": [
        13.41057,
        52.52497
      ]
    }
  }, {
    "type": "Feature",
    "properties": {
      "name": "Jacob Jonas",
      "address": "Annenstraße 8A",
      "deport": "1943-01-28",
      "murder": "Auschwitz",
      "death": "1945-05-08"
    },
    "geometry": {
      "type": "Point",
      "coordinates": [
        13.4129168,
        52.5087366
      ]
    }
  }, {
    "type": "Feature",
    "properties": {
      "name": "Else Jonas",
      "address": "Annenstraße 8A",
      "deport": "1943-01-28",
      "murder": "Auschwitz",
      "death": "1945-05-08"
    },
    "geometry": {
      "type": "Point",
      "coordinates": [
        13.4129168,
        52.5087366
      ]
    }
  }, {
    "type": "Feature",
    "properties": {
      "name": "Lieselotte Jonas",
      "address": "Annenstraße 8A",
      "deport": "1943-01-28",
      "murder": "Auschwitz",
      "death": "1945-05-08"
    },
    "geometry": {
      "type": "Point",
      "coordinates": [
        13.4129168,
        52.5087366
      ]
    }
  }, {
    "type": "Feature",
    "properties": {
      "name": "Peter Max Jonas",
      "address": "Annenstraße 8A",
      "deport": "1943-01-28",
      "murder": "Auschwitz",
      "death": "1945-05-08"
    },
    "geometry": {
      "type": "Point",
      "coordinates": [
        13.4129168,
        52.5087366
      ]
    }
  }, {
    "type": "Feature",
    "properties": {
      "name": "Martin Jonas",
      "address": "Auguststr. 4",
      "deport": "1943-03-03",
      "murder": "Auschwitz",
      "death": "1945-05-08"
    },
    "geometry": {
      "type": "Point",
      "coordinates": [
        13.3917727,
        52.5260265
      ]
    }
  }, {
    "type": "Feature",
    "properties": {
      "name": "Recha Joseph",
      "address": "Neue Hochstr. 10",
      "deport": "1943-03-17",
      "murder": "Auschwitz",
      "death": "1945-05-08"
    },
    "geometry": {
      "type": "Point",
      "coordinates": [
        13.3758454,
        52.5401373
      ]
    }
  }, {
    "type": "Feature",
    "properties": {
      "name": "Hermann Joseph",
      "address": "Neue Hochstr. 10",
      "deport": "1943-03-17",
      "murder": "Auschwitz",
      "death": "1945-05-08"
    },
    "geometry": {
      "type": "Point",
      "coordinates": [
        13.3758454,
        52.5401373
      ]
    }
  }, {
    "type": "Feature",
    "properties": {
      "name": "Heinz Hermann Jospe",
      "address": "Liebenwalder Straße 40",
      "deport": "1943-01-12",
      "murder": "Auschwitz",
      "death": "1945-05-08"
    },
    "geometry": {
      "type": "Point",
      "coordinates": [
        13.36012,
        52.55175
      ]
    }
  }, {
    "type": "Feature",
    "properties": {
      "name": "Henriette Jospe",
      "address": "Liebenwalder Straße 40",
      "deport": "1943-01-12",
      "murder": "Auschwitz",
      "death": "1945-05-08"
    },